Id,NAME,ADDRESS,CITY,STATE,ZIP,LAT,LON,PHONE,REVENUE,UTILIZATION
ef58ea08-d883-3957-8300-150554edc8fb,HEALTHALLIANCE HOSPITALS  INC,60 HOSPITAL ROAD,LEOMINSTER,MA,01453,42.520838,-71.770876,9784662000,13303.479999999989,105
69176529-fd1f-3b3f-abce-a0a3626769eb,MOUNT AUBURN HOSPITAL,330 MOUNT AUBURN STREET,CAMBRIDGE,MA,02138,42.375967,-71.118275,6174923500,433563.6699999726,3455
5e765f2b-e908-3888-9fc7-df2cb87beb58,STURDY MEMORIAL HOSPITAL,211 PARK STREET,ATTLEBORO,MA,02703,41.931653,-71.294503,5082225200,236233.64000000546,1860
f1fbcbfb-fcfa-3bd2-b7f4-df20f1b3c3a4,LAWRENCE GENERAL HOSPITAL,ONE GENERAL STREET,LAWRENCE,MA,01842,42.700273,-71.161357,9786834000,178653.50000000276,1445
e002090d-4e92-300e-b41e-7d1f21dee4c6,CAMBRIDGE HEALTH ALLIANCE,1493 CAMBRIDGE STREET,CAMBRIDGE,MA,02138,42.375967,-71.118275,6176652300,376578.499999983,3011
ef6ab57c-ed94-3dbe-9861-812d515918b3,CAPE COD HOSPITAL,88 LEWIS BAY ROAD,HYANNIS,MA,02601,41.748854,-70.74053599999998,5087711800,394893.3699999799,3128
49318f80-bd8b-3fc7-a096-ac43088b0c12,COOLEY DICKINSON HOSPITAL INC THE,30 LOCUST STREET,NORTHAMPTON,MA,01060,42.327044,-72.67463000000002,4135822000,199681.36000000447,1577
fbf6180e-b800-3ebe-b91d-93d0288c400e,BAYSTATE FRANKLIN MEDICAL CENTER,164 HIGH STREET,GREENFIELD,MA,01301,42.614671,-72.597063,4137730211,61428.46000000075,490
8b58cdd1-3d79-3126-8fe0-da2c54d6805c,CARNEY HOSPITAL,2100 DORCHESTER AVENUE,BOSTON,MA,02124,42.33196,-71.020173,6175062000,47117.55000000036,376
4bdaa4c2-c664-3089-aee2-7137abbad27f,HARRINGTON MEMORIAL HOSPITAL-1,100 SOUTH STREET,SOUTHBRIDGE,MA,01550,42.059669,-72.03404,5087659771,129418.32000000258,1019
ecc51621-0af3-3b35-ac3e-8b1e34022e92,SAINT ANNE'S HOSPITAL,795 MIDDLE STREET,FALL RIVER,MA,02721,41.725351,-71.094162,5086745600,292133.8000000002,2344
5d4b9df1-93ae-3bc9-b680-03249990e558,HOLYOKE MEDICAL CENTER,575 BEECH STREET,HOLYOKE,MA,01040,42.211656,-72.642448,4135342500,128307.46000000255,1032
37b4d73f-652d-3033-a16e-d97b9e8b4cda,ANNA JAQUES HOSPITAL,25 HIGHLAND AVENUE,NEWBURYPORT,MA,01950,42.812141,-70.886646,9784631000,205080.23000000464,1609
5844ad77-f653-3c2b-b7dd-e97576ab3b03,BAYSTATE WING HOSPITAL AND MEDICAL CENTERS,40 WRIGHT STREET,PALMER,MA,01069,42.187794,-72.30846899999997,4132837651,100951.4500000018,791
08bcda9c-f8c8-3244-82d4-fc306a7a55d3,BOSTON MEDICAL CENTER CORPORATION-,1 BOSTON MEDICAL CENTER PLACE,BOSTON,MA,02118,42.33196,-71.020173,6176388000,39522.96000000015,314
37c0de84-bcaf-3624-82bf-a89b2ac441b8,BEVERLY HOSPITAL CORPORATION,85 HERRICK STREET,BEVERLY,MA,01915,42.556659,-70.84496,9789223000,121952.86000000237,963
4861d01f-019c-3dac-a153-8334e50919f9,NORTH SHORE MEDICAL CENTER -,81 HIGHLAND AVENUE,SALEM,MA,01970,42.50128,-70.897502,9787411215,238067.07000000548,1915
a0b6ec0c-e587-3b2a-bf9f-248849f29ee5,ST ELIZABETH'S MEDICAL CENTER,736 CAMBRIDGE STREET,BRIGHTON,MA,02135,42.33196,-71.020173,6177893000,23765.439999999977,191
4f3a530e-a2f7-3de0-9a09-c0a70a9ab894,BERKSHIRE MEDICAL CENTER INC - 1,725 NORTH STREET,PITTSFIELD,MA,01201,42.452045,-73.26054,4134472000,189477.36000000435,1512
f71ce1a9-cca7-3295-9a1e-c88ac3479b6f,MARLBOROUGH HOSPITAL,157 UNION STREET,MARLBOROUGH,MA,01752,42.349617,-71.547214,5084815000,182735.28000000413,1479
c44f361c-2efb-3050-8f97-0354a12e2920,SIGNATURE HEALTHCARE BROCKTON HOSPITAL,680 CENTER STREET,BROCKTON,MA,02302,42.082543,-71.024638,5089417000,192344.8500000041,1532
331f4c11-d298-308b-aaa1-d7825b29b57f,CLINTON HOSPITAL ASSOCIATION,201 HIGHLAND STREET,CLINTON,MA,01510,42.411887,-71.690005,9783683000,55280.48000000058,444
b1ddf812-1fdd-3adf-b1d5-32cc8bd07ebb,BETH ISRAEL DEACONESS HOSPITAL - PLYMOUTH,275 SANDWICH STREET,PLYMOUTH,MA,02360,41.897892,-70.62403,5087462000,209574.92000000455,1663
6be05ccf-ef94-341f-a2a3-1cf9bfde1b18,ADCARE HOSPITAL OF WORCESTER INC,107 LINCOLN STREET,WORCESTER,MA,01605,42.269478,-71.807783,5087999000,160313.3800000034,1278
b0e04623-b02c-3f8b-92ea-943fc4db60da,LOWELL GENERAL HOSPITAL,295 VARNUM AVENUE,LOWELL,MA,01854,42.638893,-71.32210699999997,9789376000,190924.30000000424,1524
ebc3f5c4-6700-34af-8323-85621c313726,NOBLE HOSPITAL,115 WEST SILVER STREET,WESTFIELD,MA,01085,42.138838,-72.755911,4135682811,113118.28000000215,891
fd328395-ab1d-35c6-a2d0-d05a9a79cf11,MERCY MEDICAL CTR,271 CAREW STREET,SPRINGFIELD,MA,01104,42.115454,-72.539978,4137489000,299341.2099999988,2343
d692e283-0833-3201-8e55-4f868a9c0736,HALLMARK HEALTH SYSTEM,585 LEBANON STREET,MELROSE,MA,02176,42.455723,-71.05901899999998,7819793000,591758.3099999698,4739
d78e84ec-30aa-3bba-a33a-f29a3a454662,MASSACHUSETTS GENERAL HOSPITAL,55 FRUIT STREET,BOSTON,MA,02114,42.33196,-71.020173,6177262000,67938.16000000092,530
8ad64ecf-c817-3753-bee7-006a8e662e06,MORTON HOSPITAL,88 WASHINGTON STREET,TAUNTON,MA,02780,41.903323,-71.094984,5088287000,1266387.919999945,10277
23834663-ed53-3da9-b330-d6e1ecb8428e,SOUTHCOAST HOSPITAL GROUP  INC,363 HIGHLAND AVENUE,FALL RIVER,MA,02720,41.725351,-71.094162,5086793131,211486.3800000047,1689
44bef9d3-91c2-3005-93e0-ccf436348ff0,MASSACHUSETTS EYE AND EAR INFIRMARY -,243 CHARLES STREET,BOSTON,MA,02114,42.33196,-71.020173,6175237900,37198.08000000009,297
60457c13-adb2-3415-82c5-86ab5dab5f93,BAYSTATE MEDICAL CENTER,759 CHESTNUT STREET,SPRINGFIELD,MA,01199,42.115454,-72.539978,4137940000,210789.03000000477,1663
a9f20dc1-5147-3789-bcef-bbecb41c5983,HOLY FAMILY HOSPITAL,70 EAST STREET,METHUEN,MA,01844,42.742751,-71.178588,9786870156,44740.97000000029,367
7fb56531-86bd-3e4a-8619-4df9942da309,BETH ISRAEL DEACONESS HOSPITAL - NEEDHAM,148 CHESTNUT STREET,NEEDHAM,MA,02494,42.281593,-71.242414,7814533002,152640.94000000274,1222
03347b4d-994e-302b-848b-58019a4e274d,EMERSON HOSPITAL -,133 OLD ROAD TO 9 ACRE CORNER,W CONCORD,MA,01742,42.269478,-71.807783,9783691400,363921.209999986,2845
cb6a50e0-af76-3758-99ad-3200ede03fff,BETH ISRAEL DEACONESS MEDICAL CENTER,330 BROOKLINE AVENUE,BOSTON,MA,02215,42.33196,-71.020173,6176677000,7362.119999999994,59
9a7149fa-49fc-3c87-b935-d29c55808717,NEW ENGLAND BAPTIST HOSPITAL,125 PARKER HILL AVENUE,BOSTON,MA,02120,42.33196,-71.020173,6177545800,57217.88000000063,448
24cb4eab-6166-3530-bddc-a5a8a14a4fc1,MILFORD REGIONAL MEDICAL CENTER,14 PROSPECT STREET,MILFORD,MA,01757,42.158692,-71.521419,5084731190,214792.93000000462,1703
e44f438a-601b-30fb-85eb-bfaf8ddcb5ad,HEYWOOD HOSPITAL -,242 GREEN STREET,GARDNER,MA,01440,42.586516,-71.988062,9786323420,128333.34000000256,1007
ac8356a5-78f8-3a63-8a1e-59e832fd54e7,NASHOBA VALLEY MEDICAL CENTER,200 GROTON ROAD,AYER,MA,01432,42.562221,-71.58484399999998,9787849000,195496.57000000434,1540
db0acede-4abe-3c01-8d03-5c68a190d8c7,SOUTH SHORE HOSPITAL,55 FOGG ROAD,SOUTH WEYMOUTH,MA,02190,42.24158900000001,-71.082651,7813408000,202134.95000000476,1622
3d10019f-c88e-3de5-9916-6107b9c0263d,NEWTON-WELLESLEY HOSPITAL,2014 WASHINGTON STREET,NEWTON,MA,02462,42.331876,-71.208402,6172436000,276764.03000000323,2208
f4e7709c-02f6-37ca-aeea-8247d74e88e7,WINCHESTER HOSPITAL,41 HIGHLAND AVENUE,WINCHESTER,MA,01890,42.452752,-71.144319,7817299000,194618.09000000433,1554
12c9daf5-a29c-36c9-ac55-28972463e566,BETH ISRAEL DEACONESS HOSPITAL-MILTON INC,199 REEDSDALE ROAD,MILTON,MA,02186,42.24158900000001,-71.082651,6176964600,261006.48000000606,2050
27379046-608b-32f0-9df7-8c833cf5d11d,BRIGHAM AND WOMEN'S HOSPITAL,75 FRANCIS STREET,BOSTON,MA,02115,42.33196,-71.020173,6177325500,66388.24000000088,518
226098a2-6a40-3588-b5bb-db56c3a30a04,GOOD SAMARITAN MEDICAL CENTER,235 NORTH PEARL STREET,BROCKTON,MA,02301,42.082543,-71.024638,5084273000,211589.9000000048,1673
b7175ab4-bde5-3848-891b-579bccb77c7c,TUFTS MEDICAL CENTER,800 WASHINGTON STREET,BOSTON,MA,02111,42.33196,-71.020173,6176365000,30352.59999999997,243
d733d4a9-080d-3593-b910-2366e652b7ea,BRIGHAM AND WOMEN'S FAULKNER HOSPITAL,1153 CENTRE STREET,BOSTON,MA,02130,42.33196,-71.020173,6179837000,75816.92000000113,608
3bd5eda0-16da-3ba5-8500-4dfd6ae118b8,NORWOOD HOSPITAL,800 WASHINGTON STREET,NORWOOD,MA,02062,42.18736,-71.195955,5087721000,287613.410000001,2264
d5117822-5756-389d-9547-891a372d580f,FALMOUTH HOSPITAL,67 & 100 TER HEUN DRIVE,FALMOUTH,MA,02540,41.57072,-70.556682,5085485300,247315.55000000575,1938
f99c74cc-7d1a-3f95-9a33-4a9357bf2f2a,UMASS MEMORIAL MEDICAL CENTER INC,55 LAKE AVENUE NORTH,WORCESTER,MA,01655,42.269478,-71.807783,5083341000,964773.5300000653,7709
6f122869-a856-3d65-8db9-099bf4f5bbb8,LAHEY HOSPITAL & MEDICAL CENTER  BURLINGTON,41 & 45 MALL ROAD,BURLINGTON,MA,01803,42.503227,-71.201713,7817445100,118517.21000000229,942
465de31f-3098-365c-af70-48a071e1f5aa,METROWEST MEDICAL CENTER,115 LINCOLN STREET,FRAMINGHAM,MA,01701,42.307905,-71.436196,5083831000,133318.94000000268,1063
1eaf97fa-9de6-38de-a9c4-6efe5dc574be,ST VINCENT HOSPITAL,123 SUMMER STREET,WORCESTER,MA,01608,42.269478,-71.807783,5083635000,185266.7500000034,1594
80e919cc-df1a-3838-b75e-541564a286e5,NANTUCKET COTTAGE HOSPITAL,57 PROSPECT STREET,NANTUCKET,MA,02554,41.293416,-70.10216899999999,5082281200,202910.15000000416,1598
8e00f524-3a5f-313e-9542-378dfc61193f,MARTHA'S VINEYARD HOSPITAL INC,ONE HOSPITAL ROAD  FIRST FL  WING 5   PO BOX 1477,OAK BLUFFS,MA,02557,41.45716,-70.556101,5086930410,36681.38000000007,288
56e0b3b3-4fac-3776-8fc9-7b465eb2fc17,FAIRVIEW HOSPITAL,29 LEWIS AVENUE,GREAT BARRINGTON,MA,01230,42.19397,-73.361473,4135280790,28621.849999999973,225
161a799c-4894-36f6-8ca7-2a71c8107f79,ATHOL MEMORIAL HOSPITAL,2033 MAIN STREET,ATHOL,MA,01331,42.593384,-72.230228,9782493511,54763.840000000564,439
956ccb85-bea0-30f9-af48-52f5dd95ff72,FRANCISCAN CHILDREN'S HOSPITAL & REHAB CENTER,30 WARREN STREET,BRIGHTON,MA,02135,42.33196,-71.020173,6172543800,36552.28000000007,290
d7b11827-25f2-350b-bcd8-939fc59851b0,BOSTON CHILDREN'S HOSPITAL,300 LONGWOOD AVENUE,BOSTON,MA,02115,42.33196,-71.020173,6177356000,47608.37000000037,371
5103c940-0c08-392f-95cd-446e0cea042a,SHRINERS' HOSPITAL FOR CHILDREN (THE),516 CAREW STREET,SPRINGFIELD,MA,01104,42.115454,-72.539978,4137872000,198027.86000000456,1633
ff9863d3-3fa3-3861-900e-f00148f5d9c2,SHRINERS' HOSPITAL FOR CHILDREN - BOSTON  THE,51 BLOSSOM STREET,BOSTON,MA,02114,42.33196,-71.020173,6177223000,28027.719999999972,222
05462bf2-25d4-3ecd-afdf-bb3e1140929a,Causeway OPC,251 Causeway St.,Boston,MA,02114,42.3665,-71.05931,800-865-3384,129.16,1
c1c0c43e-ca87-3ee5-9549-be3f28afde81,Greenfield Outpatient Clinic,143 Munson Street,Greenfield,MA,01301,42.580627,-72.623634,413-773-8428 Or 413-773-8428,77.49,1
e0c85f99-d520-3f26-8dcd-cfbf172afc5a,Haverhill Community Based Outpatient Clinic (CBOC),108 Merrimack St.,Haverhill,MA,01830,42.77449,-71.07901,800-838-6331,129.16,2
ed146054-9dd5-3f0b-83df-d29d983039c3,Hyannis Outpatient Clinic,233 Stevens St,Hyannis,MA,02601,41.651745,-70.294235,508-771-3190,77.49,1
3490b118-b33a-38e3-b763-f6f8f0039d6b,Lowell Outpatient Clinic,130 Marshall Road,Lowell,MA,01852,42.62101,-71.31481,800-865-3384,4003.959999999998,31
de7eebed-6d89-3e62-b8d3-59d80c664399,Pittsfield Outpatient Clinic,73 Eagle Street,Pittsfield,MA,01201,42.451427,-73.25195,413-499-2672 Or 413-499-2672,4003.959999999998,31
cb72194a-b1fd-3089-afb6-cb8bb61f4f9c,Plymouth Outreach Clinic,116 Long Pond Road,Plymouth,MA,02360,41.924313,-70.656654,800-865-3384,129.16,1
d311e70d-86e7-3c03-b115-53892bcf7ef1,Worcester Outpatient Clinic,605 Lincoln Street,Worcester,MA,01605,42.297756,-71.766815,508-856-0104 Or 508-856-0104,645.8,7
3fbe3da9-8e41-3118-a253-7e2d1b46480f,Brockton Vet Center,1041L Pearl St.,Brockton,MA,02301,42.055134,-71.06661,508-580-2730 Or 508-580-2730,7827.089999999994,61
5b7aa5b4-aa6f-3acc-bd96-01ce774cb614,Lowell Vet Center,10 George Street  Gateway Center,Lowell,MA,01852,42.642513,-71.3062,978-453-1151,77.49,2
3a2242e0-de37-303b-bdfc-e160c7eae518,Worcester Vet Center,255 Park Ave Suite # 900,Worcester,MA,01609,42.265556,-71.818665,508-753-7902,387.48,5
d5f4875f-6df2-32a8-a01b-47267f47fc49,TERRI PEREIRA,221 BOSTON POST RD,MARLBORO,MA,01752-3586,42.349617,-71.547214,508-481-5519,12399.35999999999,96
b7dc82e4-3595-391b-a897-495dd7e5cf38,PCP103,99 WALNUT ST,SAUGUS,MA,01906-1980,42.468432,-71.01394599999999,978-631-9010,4391.439999999998,34
79e14b44-8026-3599-b8ac-14813879825e,PCP297,307 MILL ST,HOLLISTON,MA,01746-1041,42.195951,-71.45343000000001,508-429-1905,8912.039999999994,69
6725cc67-119b-38a5-9fc8-c104c2b7f993,PCP364,1010 MAIN ST,HOLDEN,MA,01520-1237,42.355801,-71.862574,508-829-9955,2066.5600000000004,16
c71b657c-58b7-33bf-8637-c0e102faf337,PCP895,182 MAIN ST,WATERTOWN,MA,02472-4409,42.369451,-71.177925,617-564-0656,6716.319999999995,52
bc1469ec-a5f4-3102-93c6-8f7a991fb161,PCP928,1842 BEACON ST,BROOKLINE,MA,02445-1900,42.323853,-71.142003,781-690-1317,3874.7999999999984,30
8cc53527-a986-359d-9c23-ad6325458765,PCP1243,194 REAR MAIN ST,AMESBURY,MA,01913-3609,42.851284,-70.955837,978-834-0120,6974.639999999995,54
3efb354f-8c7e-3efe-8660-e2eb0fd6a3c5,PCP1345,38 VANDERBILT AVE,NORWOOD,MA,02062-5006,42.187364,-71.195971,781-769-9955,3874.7999999999984,30
dd1f04b3-54cd-3ff0-96e3-a9aec2078301,PCP1444,5 E MAIN ST,MERRIMAC,MA,01860-2005,42.838603000000006,-71.011997,978-346-4450,11236.919999999991,87
b0bc9a3f-9875-3126-913f-1e1c1a01eb16,PCP1470,1 BRANCH ST,METHUEN,MA,01844-1923,42.742751,-71.178588,978-984-5748,7232.959999999995,56
4222a451-49b1-3520-b7d0-df9dc2caa033,PCP1530,48 N PLEASANT ST,AMHERST,MA,01002-1738,42.363534,-72.50729100000001,413-256-6211,11495.23999999999,89
198b7252-7aa4-378a-85b2-76396dd852f9,PCP1621,120 N MAIN ST,ATTLEBORO,MA,02703-2248,41.931653000000004,-71.294503,470-152-47843,7103.799999999995,55
93ce4cf6-c9bc-31e7-8e7f-b3a7dcae50f5,PCP1813,56 N MAIN ST,FALL RIVER,MA,02720-2132,41.725351,-71.094162,508-676-8861,1033.28,8
1dc3e5ea-c4e5-3921-8091-f93f95e6b114,PCP1847,54 NONSET PATH,ACTON,MA,01720-4720,42.483953,-71.43849499999999,978-413-9445,645.8,5
9f65cabf-9d9f-320d-8856-2f0834875bd7,PCP1878,166 ATLANTIC AVE,MARBLEHEAD,MA,01945-2911,42.495629,-70.83582,781-631-2182,3228.999999999999,25
0b829ba7-406d-3339-b330-1e995b1d72a0,PCP2044,150 MARKET ST,LYNN,MA,01901-1529,42.474862,-70.96218499999999,781-592-6100,7232.959999999995,56
b81e45f5-1cbe-3464-bcea-2ced466c7213,PCP2164,1419 BEACON ST,BROOKLINE,MA,02446-4808,42.323853,-71.142003,617-834-2092,3874.7999999999984,30
b6fe1d9f-de1d-32f9-a76d-ccd6fa82e3e0,DIAGNOSTIC ULTRASOUND ASSOCIATES  PC,1 BROOKLINE PL,BROOKLINE,MA,02445-7277,42.323853,-71.142003,617-739-0245,8653.719999999994,67
13565c20-feac-36cb-ab5c-cef3e6a7dd8f,PCP2306,115 MILL ST,BELMONT,MA,02478-1041,42.395317,-71.180284,617-855-2683,5295.559999999997,41
223c28bc-a680-32b8-a654-3c07a81e3cea,PCP2613,6 COURTHOUSE LN,CHELMSFORD,MA,01824-1725,42.597055,-71.3697,978-866-1435,3616.4799999999987,28
3a6ab768-ec36-3147-a065-fe9b90362596,BURLINGTON VISION ASSOCIATES INC,385 CAMBRIDGE ST,BURLINGTON,MA,01803-1944,42.503227,-71.201713,781-272-9365,4133.119999999998,32
518271fa-2372-3b99-9b3f-a9ccc3cfc33b,PCP2704,31 HASTINGS ST,MENDON,MA,01756-1090,42.09387,-71.544519,508-473-12005,4520.599999999998,35
bc938b40-d8f2-3c87-877a-26071a128971,PCP3014,110 HOLTSHIRE RD,ORANGE,MA,01364-9736,42.605437,-72.292074,978-544-6699,5424.719999999997,42
414083bc-a154-3b45-bfbf-397a568e2362,MALCOLM AND MARTIN GREENE OD PARTNERS,31 SPRING ST,WATERTOWN,MA,02472-3473,42.369451,-71.177925,617-924-3343,3874.7999999999984,30
f64a8254-152a-394c-aa57-4a7e88ce99af,PCP3554,450 W RIVER ST,ORANGE,MA,01364-1443,42.605437,-72.292074,978-544-1556,6457.999999999995,50
129f29ed-9183-311f-a596-9c762d8cb08c,PCP3741,655 BOSTON RD,BILLERICA,MA,01821-5338,42.559673,-71.260947,978-670-2706,9945.319999999992,77
36f3b4f2-9e17-3b2b-b080-eab3c7fda7fb,PCP3763,53 CHESTNUT ST,SOUTH DARTMOUTH,MA,02748-3524,41.661303,-70.937913,617-999-7858,2712.3599999999997,21
0de9633c-54dd-39cb-947c-8ab5ecdf93a2,PCP3874,2 SHAKER RD,SHIRLEY,MA,01464-2561,42.573654,-71.640986,978-425-6666,12786.83999999999,99
1b16712e-c42b-38cc-8f9c-06c60aee8f4a,PCP3958,26 WAMPUM DR,BREWER,MA,02631-1311,41.760932,-70.070392,508-896-4499,8653.719999999994,67
20a2afdf-7859-3515-ab4e-539ec8bc5f44,PCP4064,369 TAPPAN ST,BROOKLINE,MA,02445-5370,42.323853,-71.142003,617-734-8459,3874.7999999999984,30
ff6a07d9-8101-3861-8d58-2bd44631f20c,PCP4329,450 PEARL ST,STOUGHTON,MA,02072-1617,42.119006,-71.10365,781-344-0057,9428.679999999993,73
829380ee-2794-3710-a790-d547b74c9d3d,PCP4431,250 HAMPTON ST,AUBURN,MA,01501-2584,42.198708,-71.846006,508-832-4101,7878.759999999994,61
2e6dae6e-d21b-3c65-91f9-9ab0b8ef4268,PCP4478,175 DWIGHT RD,LONGMEADOW,MA,01106-1576,42.047565000000006,-72.57113000000001,413-567-7111,5295.559999999997,41
bffef3f6-1fc7-3881-be74-0678fbe77b5b,PCP4576,30 COURT ST,WESTFIELD,MA,01085-3587,42.138838,-72.755911,413-562-8045,5295.559999999997,41
6ae741a1-f01a-398e-86f6-ec5fb6c32f14,PCP4675,20 TREMONT ST,DUXBURY,MA,02332-5315,42.044307,-70.70604499999999,781-934-0953,3228.999999999999,25
98b63415-bc21-3f43-b5ad-b78fb98c023d,PCP4717,214 N MAIN ST,WEST BRIDGEWATER,MA,02379-1251,42.021617,-71.026717,508-587-2858,2324.88,18
088678d4-c735-3fa9-a22c-40272e071498,PCP4830,531 KING ST,LITTLETON,MA,01460-1279,42.535931,-71.490569,781-718-1916,4133.119999999998,32
b7b40287-83bb-396b-a2c6-eb74e3265d4e,PCP4961,1180 BEACON ST,BROOKLINE,MA,02446-3806,42.323853,-71.142003,617-396-7573,10849.439999999991,84
e73f5da9-599e-3c0d-976f-ee2e4421f347,PCP5128,1176 MEMORIAL DR B,CHICOPEE,MA,01020-3958,42.175668,-72.572257,413-593-3101,6457.999999999995,50
ab6f0d30-8a66-30ae-9c40-083ee389abb2,PCP5572,117 LAKE AVE,NEWTON CENTRE,MA,02459-2136,42.331876,-71.208402,617-527-6827,3099.8399999999992,24
6fca7f82-5436-395c-b7d5-df9438fb4b2e,PCP5655,923 ROUTE 6A T,YARMOUTH PORT,MA,02675-2159,41.706920000000004,-70.221117,508-362-5080,1033.28,8
c927f41c-0e3e-3997-bed8-bd53534de138,PCP5684,1 CENTRAL ST,STONEHAM,MA,02180-2023,42.474208000000004,-71.097665,781-662-5118,6199.679999999996,48
bb676eba-62c7-3990-ae0b-a08cef3d2af7,PCP5709,3 MARKET XING,PLYMOUTH,MA,02360-7735,41.897892,-70.62403,617-869-3740,3874.7999999999984,30
56dbf306-b14b-3649-8f40-76064ddba6bf,PCP5984,2 S BRIDGE DR,AGAWAM,MA,01001-2000,42.064731,-72.653477,413-789-7455,7103.799999999995,55
5941168c-abcf-3a5c-8281-019d64bcd548,PCP6036,195 RUSSELL ST,HADLEY,MA,01035-9552,42.356491,-72.568632,413-695-3707,3874.7999999999984,30
3bb806d8-ae0d-37d4-af59-96efcc928ea3,PCP6043,213 WASHINGTON ST,GROVELAND,MA,01834-1008,42.7539,-71.015935,978-886-1423,6845.479999999995,53
ddd639be-74fd-3f52-8f40-04e2a4457ca3,PCP6114,440 HUMPHREY ST,SWAMPSCOTT,MA,01907-2544,42.468059000000004,-70.89126,781-598-6680,1033.28,8
88d1ec67-f7f3-3795-895f-53814631398b,PCP6620,50 JEFFERSON ST,WINTHROP,MA,02152-2649,42.375541,-70.970646,617-846-1734,8007.919999999994,62
bf298470-c36c-3a2f-94ef-189c3234d071,PCP6664,5 MARKET SQ,AMESBURY,MA,01913-2440,42.851284,-70.955837,978-721-8434,9170.359999999993,71
e9a3d0b3-e44a-3b9e-9540-5dd9bfaeee78,PCP6815,233 HARVARD ST,BROOKLINE,MA,02446-5017,42.323853,-71.142003,617-513-6254,4391.439999999998,34
90573b15-fed6-3a0e-8211-52d55875e576,PCP7008,203 TURNPIKE RD,NORTH ANDOVER,MA,01845-5042,42.673909,-71.091334,603-505-0465,8782.879999999994,68
28296513-2591-3a92-82cf-2697f7e44ecc,PCP7021,2 DUNDEE PARK DR,ANDOVER,MA,01810-3735,42.648044,-71.161751,978-247-8958,11753.55999999999,91
6bb5049f-7008-3a0a-b8b7-03d0c5bb0686,PCP7095,872 MASSACHUSETTS,CAMBRIDGE,MA,02139-3072,42.376043,-71.11868,617-448-9916,11753.55999999999,91
e43fd7ef-4ec5-3f03-a270-c36158d48829,PCP7127,100 GROVE ST,WORCESTER,MA,01605-2647,42.269478,-71.807783,978-618-5807,12915.999999999989,100
973e7384-d05b-32ad-a8cc-c39191ee9150,PCP7483,152 N ST,PITTSFILED,MA,01201,42.452045,-73.26054,413-443-8480,10720.279999999992,83
94577927-3283-3f8a-b231-016499899908,PCP7544,35 HAWES ST,NO DARTMOUTH,MA,02747-1929,41.646686,-70.999158,508-993-1651,4908.079999999997,38
145bc458-bc08-3e06-b74e-36f5c3177040,PCP8232,25 MAIN ST,FOXBORO,MA,02035-1808,42.064024,-71.248401,508-543-0764,7620.439999999994,59
a0123c36-2436-3609-a5eb-3c3857ed711d,PCP8367,12 CORSER ST,HOLYOKE,MA,01040-2275,42.211656,-72.642448,413-887-7827,6845.479999999995,53
5f3e3a85-0461-3b77-9505-f57767d24412,PCP8369,25 OLD WESTPORT RD,DARTMOUTH,MA,02747-2537,41.56651,-70.958229,508-813-0981,8782.879999999994,68
c2ecccb0-f9c0-36ca-bc8f-78710b04149f,PCP8372,20 TREMONT ST,DUXBURY,MA,02332-5315,42.044307,-70.70604499999999,617-645-0973,9299.519999999993,72
6ffe62de-5d90-3cc7-be16-643a7496c817,PCP8458,601 AMHERST RD,SUNDERLAND,MA,01375-9466,42.466691,-72.546751,413-665-3336,3487.319999999999,27
b7193d22-70e3-3b85-954e-daf55eee1cbe,PCP8495,113 GREENLAWN AVE,NEWTON,MA,02459-1712,42.331876,-71.208402,617-965-5980,8007.919999999994,62
d01fb520-993d-306a-beb2-607e18c95517,PCP8522,4 ELM ST,KINGSTON,MA,02364-1906,41.987196000000004,-70.74194200000001,781-936-8068,3358.159999999999,26
27025636-b4ec-3b49-91df-baf82448b511,PRO REHAB INC PC,227 CHELMSFORD ST,CHELMSFORD,MA,01824-2305,42.597055,-71.3697,978-256-3300,10461.959999999992,81
c12232b7-32f4-38f0-9181-7aac661a2fea,PCP8626,600 WORCESTER RD,FRAMINGHAM,MA,01702-5303,42.307905,-71.436196,508-788-0124,5941.359999999996,46
647cdf69-624c-3829-a6fe-7e291931d745,PCP8897,115 MILL ST,BELMONT,MA,02478-1064,42.395317,-71.180284,617-855-3129,9299.519999999993,72
5fc417e6-12d6-339a-8db0-173fadf98c86,PCP8913,1311 BEDFORD ST,FALL RIVER,MA,02723-2637,41.725351,-71.094162,508-567-1477,4778.919999999997,37
fcae3c44-95b9-3a38-ba85-2f0385345e27,PCP9004,176 OLD COUNTY RD,WESTPORT,MA,02790-1172,41.579794,-71.081822,508-636-0703,10074.479999999992,78
32836213-4ac7-3021-aad8-6383f3ced351,PCP9022,1 HOLLYWOOD DR,GRAFTON,MA,01536-1614,42.209151,-71.683644,508-839-3616,8266.239999999994,64
8d8a2e7a-9572-3556-adc2-0cb1479f071f,PCP9301,240 CONCORD AVE,CAMBRIDGE,MA,02138-1337,42.376043,-71.11868,617-497-9267,4908.079999999997,38
d3e3c112-3172-3b43-98df-018268eaeae3,PCP9408,221 WASHINGTON ST,GLOUCESTER,MA,01930-2642,42.62885,-70.685875,978-281-5225,6974.639999999995,54
b19f82e0-4f63-3e38-a3e7-111127d0a5c3,PCP9535,0 GOVERNORS AVE,MEDFORD,MA,02155-3084,42.423844,-71.10923100000001,781-396-5575,1291.6000000000001,10
8f345a31-6b91-352c-b956-e1d59e797568,PCP9564,181 NORTHAMPTON ST,EASTHAMPTON,MA,01027-1181,42.265435,-72.670813,413-575-6394,3099.8399999999992,24
473293d9-b54a-384c-9146-05416f9bdac4,PCP9643,173 MOUNT AUBURN ST,WATERTOWN,MA,02472-4005,42.369451,-71.177925,617-396-7687,4908.079999999997,38
650a367a-d609-342d-a540-a99645f509b4,PCP9751,36 N BEDFORD ST,EAST BRIDGEWATER,MA,02333-1186,42.037278,-70.94045899999999,508-735-9406,3616.4799999999987,28
e72c6935-66fe-36b4-90ab-b3e958b57fba,PCP9773,23 ISAAC ST,MIDDLEBORO,MA,02346-2080,41.894223,-70.925689,774-254-1197,11624.39999999999,90
da061c5d-1f60-3f38-9a2b-1916d1fb7d34,PCP9866,141 SNAKE HOLW,VINEYARD HAVEN,MA,02568-5905,41.457484,-70.605097,508-693-3547,8782.879999999994,68
bf5b8173-2d02-342a-b46e-f7814724d0c0,PCP9942,39 GREEN ST,MILTON,MA,02186-2318,42.241557,-71.082432,617-361-1169,4908.079999999997,38
b3a36503-0436-317f-a5f0-d18aa5629349,PCP9953,77 PLAYSTEAD RD,MEDFORD,MA,02155-1451,42.423844,-71.10923100000001,781-332-6311,13561.799999999988,105
b1b2bfc5-4b86-3c92-820d-58789ced7abe,PCP10097,18 GRANITE ST,HAVERHILL,MA,01832-5531,42.782945,-71.087436,978-374-2010,6199.679999999996,48
d25fc46d-668a-360b-b1ec-255794e8d75b,VEIN AND AESTHETIC CENTER OF BOSTON,333 ELM ST,DEDHAM,MA,02026-4530,42.246871999999996,-71.179462,781-251-0029,6199.679999999996,48
22f35ea9-04e3-3ea7-92e3-c6bfd6530d81,PCP10403,85 WALSH ST,RANDOLPH,MA,02368-2648,42.178993,-71.052654,401-261-5131,5424.719999999997,42
2cdbd26a-7304-3a85-93bc-9e92c6a91f00,PCP10689,403 HIGHLAND AVE,SOMERVILLE,MA,02144-2530,42.390445,-71.101033,617-666-5800,5812.199999999996,45
5676863f-2bb6-399f-95fc-eff75db1238e,PCP10840,24 DICKINSON ST,AMHERST,MA,01002-2310,42.363534,-72.50729100000001,413-218-7084,6587.159999999995,51
438e9d44-1f8f-3c7f-807c-754e714c4e29,PCP11164,441 WASHINGTON AVE,CHELSEA,MA,02150-3679,42.396824,-71.031348,617-889-5528,4391.439999999998,34
aec53c3f-8025-3167-a079-8c82c2b6255d,PCP11526,440 HUMPHREY ST,SWAMPSCOTT,MA,01907-2574,42.468059000000004,-70.89126,781-581-0326,11236.919999999991,87
1ec8b573-30d2-3ed7-aa18-3f3d438f1540,PCP11682,77 WARREN ST,BRIGHTON,MA,02135-3601,42.33196,-71.020173,617-953-4831,7491.279999999994,58
12a3ebf8-88fc-3152-ab89-3c0a0ad2786b,PCP11686,364 BOSTON TPKE,SHREWSBURY,MA,01545-3869,42.284766999999995,-71.714228,508-792-1500,1808.2400000000005,14
a856a319-f212-34ed-a1e1-d94fd73e0c93,PCP11793,1105 LAKEVIEW AVE,DRACUT,MA,01826-4745,42.679722999999996,-71.30068,978-957-5665,12528.51999999999,97
043c2193-7fbd-3a5c-ad68-275230f1f3d4,PCP11873,DOVER MEDICAL PROFESSIONAL BUILDING,DOVER,MA,02030-2374,42.234159999999996,-71.291167,508-785-2319,3745.6399999999985,29
15d43eb9-2b01-3730-9d2f-b232e0c046c3,PCP11909,156 ROCK HARBOR RD,ORLEANS,MA,02653-2316,41.76935,-69.969034,508-240-1722,7491.279999999994,58
92a2baa4-3c1f-3479-9d37-47bb0598277f,PCP12009,1355 MAIN ST,HOLDEN,MA,01520-1060,42.355801,-71.862574,508-829-6731,9299.519999999993,72
7da64a9d-c5e6-3b94-9ef6-06ec8a3ef38e,PCP12012,400 HUNNEWELL ST,NEEDHAM,MA,02494-1300,42.281593,-71.242414,781-214-6261,3745.6399999999985,29
daa4c408-5fc5-32a8-881e-12181e8b8598,PCP12132,11 PROSPECT ST,SHERBORN,MA,01770-1302,42.231947,-71.372963,508-545-1843,17049.119999999984,132
cb2fe104-f524-30c3-a7ed-22a9e19e4b7c,PCP12231,246 W ST,WARE,MA,01082-9749,42.275462,-72.280158,413-967-3017,4649.7599999999975,36
ccafb5f7-0a90-3c10-9803-d2e8798178a4,PCP12382,71 ADAMS ST,MILTON,MA,02187,42.241557,-71.082432,617-686-9378,5553.8799999999965,43
3dc9bb2d-5d66-3e61-bf9a-e234c6433577,PCP12399,27 COLLEGE ST,SOUTH HADLEY,MA,01075-1155,42.256208,-72.58103,413-446-0498,3616.4799999999987,28
763a3f59-a40f-3070-9ebf-a08366f552f6,PCP12403,62 MAIN ST,KINGSTON,MA,02364-3071,41.987196000000004,-70.74194200000001,781-585-9300,8395.399999999994,65
a7ae73bc-cfbd-33bc-92d8-e4c494fb1f94,PCP12872,363 COURT ST,PLYMOUTH,MA,02360-7306,41.897892,-70.62403,508-746-8004,4133.119999999998,32
da799735-2a0b-3a36-8b5c-95e8b5023e06,PCP12877,142 N MAIN ST,BELCHERTOWN,MA,01007-9433,42.27901,-72.400468,413-323-1196,10461.959999999992,81
d5dccafd-c5a3-3c51-bbde-c9524691ad1f,PCP13155,1330 BEACON ST,BROOKLINE,MA,02446-3200,42.323853,-71.142003,617-278-6322,5295.559999999997,41
2b841563-da17-3168-9c5d-954f3b5717f0,PCP13397,537 ROUTE 28 2G,HARWICH PORT,MA,02646-1894,41.670154,-70.06519399999999,508-237-2337,8137.079999999994,63
a0ef452b-47f2-3955-81d5-6ad5a2da574a,PCP13640,874 TURNPIKE ST,NORTH ANDOVER,MA,01845-6118,42.673909,-71.091334,978-697-1137,4262.279999999998,33
cd2adec5-2598-3c48-88b5-75860fcdd58b,PCP13691,109 MASONIC HOME RD,CHARLTON,MA,01507-6301,42.133935,-71.968025,508-755-9051,5295.559999999997,41
fa120db4-e034-3fa3-a831-d343d5445bb8,PCP13750,315 CENTRAL ST,SAUGUS,MA,01906-2342,42.468432,-71.01394599999999,781-231-2292,3228.999999999999,25
bb13540a-76b8-364d-8d56-25108796456f,PCP13766,44 BURLINGTON MALL RD,BURLINGTON,MA,01803-4530,42.503227,-71.201713,781-564-9959,2454.04,19
78d6ee98-f770-38f8-a1a4-47e15afd5a44,PCP13848,694 MAIN ST,HOLDEN,MA,01520-1862,42.355801,-71.862574,508-829-7191,8395.399999999994,65
b5a30260-1468-3b27-a8fb-46634aedcb75,PCP13911,57 CEDAR ST,WORCESTER,MA,01609-2183,42.269478,-71.807783,508-752-7529,11107.759999999991,86
0aa388c5-cfe9-3563-945a-05aa2bcf1cfc,PCP13934,45 STERLING ST,WEST BOYLSTON,MA,01583-1268,42.369417,-71.785036,774-535-2947,12528.51999999999,97
ab2b53d3-1524-30dd-b44f-272e6f57a836,PCP13981,1395 N MAIN ST,RANDOLPH,MA,02368-1768,42.178993,-71.052654,781-961-7887,6716.319999999995,52
2ed2751c-c526-39a9-9247-41d092ddb896,HANOVER CHIROPRACTIC HEALTH CARE LLC,24 ROCKLAND ST,HANOVER,MA,02339-2385,42.122956,-70.85631,781-826-7397,4778.919999999997,37
f7ae497d-8dc6-3721-9402-43b621a4e7d2,PCP14023,296 N MAIN ST,EAST LONGMEADOW,MA,01028-1878,42.062378,-72.498111,413-525-5080,6974.639999999995,54
6236e299-a751-3819-8b06-a17004bdbbfd,BOSTON VISION WORKS INC,335 MAIN ST,SAUGUS,MA,01906-3143,42.468432,-71.01394599999999,781-233-9570,2583.2,20
0e395cae-a0c5-3794-9a77-19654a835c12,PCP14251,218 BOSTON ST,TOPSFIELD,MA,01983-2200,42.641379,-70.94344,978-887-01011,8007.919999999994,62
3117b55a-2954-3db6-9a5b-80f13c58c7fc,PCP14426,46 FLETCHER ST,ROSLINDALE,MA,02131-1916,42.33196,-71.020173,617-640-0951,2970.6799999999994,23
59a3a46d-e206-3052-8c82-cbafc00cf1ba,PCP14572,512 MAIN ST,SHREWSBURY,MA,01545-6405,42.284766999999995,-71.714228,508-842-2797,3228.999999999999,25
75bca02f-95ff-3c58-8332-9b5b3f47db19,PCP14576,94 PLEASANT ST,ARLINGTON,MA,02476-6532,42.418721999999995,-71.163912,781-643-0310,1808.2400000000005,14
641bb7d9-b068-3b05-80d8-b830bedcad94,ACKEYE  LLC,13 OLD S RD,NANTUCKET,MA,02554-6065,41.293416,-70.10216899999999,508-228-0844,9428.679999999993,73
588e03bd-91bc-3442-be9e-66c18ba36c0c,KHOURY CHIROPRACTC  INC.,116 MECHANIC ST,BELLINGHAM,MA,02019-1678,42.076682,-71.47449,508-966-3777,6199.679999999996,48
b1423e28-2040-3f03-b51c-16a35b0ee7c8,ASSOCIATED EYE PHYSICIANS AND SURGEONS INC,1261 FURNACE BROOK PKWY,QUINCY,MA,02169-4762,42.261006,-71.008988,617-770-0011,3745.6399999999985,29
c58b8233-f282-3b13-ad4e-923efb2ac061,PSYCH CARE ASSOC PC,185 W AVE,LUDLOW,MA,01056-1717,42.183577,-72.457812,413-583-6750,8395.399999999994,65
e8231d81-e192-3ccd-8cca-71fe274663ca,PCP15302,92 PROSPECT ST,GLOUCESTER,MA,01930-3710,42.62885,-70.685875,978-559-7099,7232.959999999995,56
5fb63ea3-32ab-39c9-8414-1b88434ac999,PCP15307,10 SPRING ST,MARBLEHEAD,MA,01945-3314,42.495629,-70.83582,781-639-0010,1679.0800000000004,13
25b58aaf-3bec-3cea-bf56-a95ba7c34def,PCP15356,180 BOLTON ST,MARLBOROUGH,MA,01752-3934,42.349616999999995,-71.547214,508-485-0736,4520.599999999998,35
ff917dd4-ffbb-3f4c-b2df-445a7e9d29aa,PCP15541,35 BURT ST,NORTON,MA,02766-2569,41.965340999999995,-71.18178,508-285-3370,2712.3599999999997,21
1ae16480-11ce-35df-89ee-78947036c59c,PCP15690,1180 BEACON ST,BROOKLINE,MA,02446-3885,42.323853,-71.142003,617-277-2449,6845.479999999995,53
48df8958-5f7e-3f9a-a43e-6ca6aa4cd55c,MOUNT AUBURN PHYSICAL THERAPY ASSOCIATES  PC,521 MOUNT AUBURN ST,WATERTOWN,MA,02472-4153,42.369451,-71.177925,617-923-0757,6845.479999999995,53
1d376956-d8da-3a4b-ac7c-18fe4e799e3d,PCP15810,1330 BEACON ST,BROOKLINE,MA,02446-3202,42.323853,-71.142003,617-731-1800,2583.2,20
ed117731-eb4f-34eb-bb17-cb40f7d20266,PCP15843,384 W RD,ALFORD,MA,01266-9756,42.254399,-73.42904,413-644-9755,11107.759999999991,86
34a0de28-79fc-3fee-bbbe-7c12a9e84258,PCP16089,519 AMERICAN LEGION HWY 2,WESTPORT,MA,02790-4100,41.579794,-71.081822,508-636-6423,6974.639999999995,54
725a6db0-6ee4-39a3-85c3-fd15cc94fc2b,PCP16167,1842 BEACON ST,BROOKLINE,MA,02445-1922,42.323853,-71.142003,617-735-9656,2454.04,19
48bc3aff-5ff4-3ec6-b7e5-5a5b36680331,PCP16262,1032 TURNPIKE ST,CANTON,MA,02021-2866,42.175737,-71.125385,617-549-2939,5812.199999999996,45
f6f5b642-1bfb-3f7b-bce3-f883eb452bc3,PCP16322,411 ROUTE 6A 5,YARMOUTH PORT,MA,02675-1843,41.706920000000004,-70.221117,508-280-8385,5812.199999999996,45
95394b17-2f1f-3c42-b4e2-233704fb9195,PCP16338,65 POST OFFICE PARK,WILBRAHAM,MA,01095-1159,42.126883,-72.430952,413-366-1717,4133.119999999998,32
2054e9fb-ad93-3e40-a989-3de0d1b45c11,PCP16471,1581 BEACON ST,BROOKLINE,MA,02446-4602,42.323853,-71.142003,617-645-0929,3874.7999999999984,30
1a47178b-bfca-32cc-a751-67a2a66e52c5,PCP16664,1789 NORTHAMPTON ST,HOLYOKE,MA,01040-9510,42.211656,-72.642448,413-533-0001,4003.959999999998,31
29564e82-e7f8-3aeb-8d9c-1e3fd73ca340,PCP16674,1 W UNION ST,ASHLAND,MA,01721-1463,42.257754999999996,-71.473526,508-881-4443,1420.7600000000002,11
f7e2dff6-41b5-381a-a073-a4e7224fdc8d,PCP16836,47 COLUMBUS AVE,SOMERVILLE,MA,02143-2018,42.390445,-71.101033,617-784-8163,2841.5199999999995,22
cfefc3e1-bedd-379a-a1ff-33e84c2e39f9,PCP17060,793 MAIN RD,WESTPORT,MA,02790-4358,41.579794,-71.081822,781-789-1236,15240.879999999986,118
b113acfc-6ee8-35b7-932a-cfcf91136002,PCP17091,181 PARK AVE,WEST SPRINGFIELD,MA,01089-3365,42.125451,-72.649734,413-781-2348,3616.4799999999987,28
c0916a22-b437-360d-840c-1b96a2411abd,PCP17172,945 BEDFORD ST,ABINGTON,MA,02351-1202,42.119966999999995,-70.957211,781-878-2340,1549.9200000000003,12
efe0e364-b8bb-346e-9a4f-57033b6524ba,PCP17289,1200 CONVERSE ST,LONGMEADOW,MA,01106-2074,42.047565000000006,-72.57113000000001,413-565-2840,10074.479999999992,78
5db1acd1-6965-3d02-a4e9-a51b55e91624,PCP17396,9 CEDAR ST,WORCESTER,MA,01609-2505,42.269478,-71.807783,508-753-71401,645.8,5
13e7e16b-beb1-3ce9-8e4d-3e8d697773bf,PCP17470,462 PLAIN ST,MARSHFIELD,MA,02050-2705,42.115139,-70.71033100000001,781-837-9956,3745.6399999999985,29
6d7e1051-7a28-33f6-9c50-608a10792892,PCP17777,44 STERLING ST,WEST BOYLSTON,MA,01583-1217,42.369417,-71.785036,508-835-6200,16015.839999999986,124
4197b0be-4eab-33f8-a339-89f45ee1320c,PCP17899,173 MOUNT AUBURN ST,WATERTOWN,MA,02472-4005,42.369451,-71.177925,617-699-2170,6587.159999999995,51
583adcd6-2bad-322e-bd4a-39f070c62ac2,PCP18026,146 RIDGE ST,ARLINGTON,MA,02474-1737,42.418721999999995,-71.163912,781-641-1029,8137.079999999994,63
3e54a0c1-21ed-34ea-9696-e64a09626bcc,PCP18347,33 PILGRIM PATH,CARLISLE,MA,01741-1840,42.53662,-71.36183199999999,978-371-9797,3874.7999999999984,30
9587a206-5f13-3b16-a17f-45b3723b8bf6,PCP18468,25 WALNUT ST,WELLESLEY HILLS,MA,02481-2130,42.30539,-71.28366899999997,617-796-8804,5683.039999999996,44
c47a2ac5-f2f2-3f8c-aee8-336ed150f77b,PCP18545,229 DUDLEY RD,NEWTON,MA,02459-2831,42.331876,-71.208402,617-965-5944,6328.839999999996,49
d4ce205d-2ce3-370f-baad-c64401aa3bb4,PCP18601,20 POND ST,MARBLEHEAD,MA,01945-3454,42.495629,-70.83582,781-631-8752,8137.079999999994,63
abb94f2e-8380-31e6-95c7-5e5aaec14bec,PCP19003,17 DORSET RD,NEWTON,MA,02468-1457,42.331876,-71.208402,617-969-0425,3099.8399999999992,24
f0f86560-e984-3bb4-b93e-480bb4691e0f,PCP19053,500 MAIN ST,WILBRAHAM,MA,01095-1658,42.126883,-72.430952,413-949-3391,2970.6799999999994,23
538e03a4-90c1-3381-bd80-b8c4ea67ccd2,PCP19187,65 CENTRAL ST A,GEORGETOWN,MA,01833-2425,42.726188,-70.983328,978-352-4200,4262.279999999998,33
2798717a-3ecc-3102-9cb7-960098c36443,PCP19277,8 BEACON ST,BOSTON,MA,02108-3722,42.338551,-71.018253,617-482-8770,4003.959999999998,31
3f918f20-ac66-387a-9dfc-91f94d08330b,PCP19300,5 WATSON RD,BELMONT,MA,02478-3924,42.395317,-71.180284,617-484-5010,7878.759999999994,61
4760f33a-83c4-3727-84a7-a8a6080125cb,PCP19561,68 MARKET ST,LYNN,MA,01901-1115,42.474862,-70.96218499999999,617-947-7456,2970.6799999999994,23
86f868e9-3325-3019-98d9-34ca2dc11f20,TANZMAN MASELLI AND ASSOCIATES PC,151 ASHLAND ST,N ADAMS,MA,01247-4522,42.675549,-73.11810799999998,413-662-2020,6457.999999999995,50
c08ed377-c346-337a-8bf0-75e7ca2cab1f,PCP20037,825 BROADWAY,RAYNHAM,MA,02767-1734,41.930477,-71.046214,508-822-6650,4778.919999999997,37
1f2b3666-5e34-3e83-8a47-076f8f9c161e,PCP20187,1234 BROADWAY,SOMERVILLE,MA,02144-1703,42.390445,-71.101033,857-998-0747,13561.799999999988,105
5725be7c-bbe8-3068-a655-cb8fce11c65a,PCP20231,1581 BEACON ST,BROOKLINE,MA,02446-4602,42.323853,-71.142003,781-221-8497,7749.599999999994,60
46084d3f-e6a2-37bc-b830-9b15674f7cae,PCP20314,117 MAIN ST,SPENCER,MA,01562-2125,42.247211,-71.991867,508-885-2500,5295.559999999997,41
371e53b1-b1f9-3ffd-91de-b16fa5cd8439,PCP20573,1140 THORNDIKE ST,PALMER,MA,01069-1509,42.187794,-72.30846899999997,413-283-2946,3616.4799999999987,28
9e2e9468-a3e6-352f-a3f1-859d1e84a284,PCP20838,19 PLEASANT ST,GLOUCESTER,MA,01930-5937,42.62885,-70.685875,978-758-8115,3616.4799999999987,28
2eb03211-fcda-3ac3-9212-968bc8d92407,PCP20846,28 N MAIN ST,ORANGE,MA,01364-1016,42.605437,-72.292074,978-544-7902,2712.3599999999997,21
f6cdf354-ad00-34c8-8426-db7e84c16972,PCP20910,174 OXFORD N ST,AUBURN,MA,01501-1529,42.198708,-71.846006,508-832-6277,8782.879999999994,68
7517e527-1261-3dcf-9575-cc8601fe4ef6,PCP21023,22 ELM ST,GREAT BARRINGTON,MA,01230-1561,42.221851,-73.333044,413-528-0553,3616.4799999999987,28
0ecfab97-a691-3a05-8880-9c8c9aba0fad,PCP21027,1330 BEACON ST,BROOKLINE,MA,02446-3204,42.323853,-71.142003,617-688-5814,4003.959999999998,31
e8f41f48-b406-34dd-ab90-90f065c7f638,PCP21423,78 BURNCOAT ST,WORCESTER,MA,01605-1350,42.269478,-71.807783,508-414-5469,5424.719999999997,42
25aceb92-21ad-3489-ad63-2fc783b2f1ae,PCP21440,420 BOYLSTON ST,BOSTON,MA,02116-4018,42.338551,-71.018253,617-236-4545,2970.6799999999994,23
38ad5f04-8515-3367-9ac0-82c7354fedf2,PCP21708,1415 BEACON ST,BROOKLINE,MA,02446-4812,42.323853,-71.142003,617-738-0600,3745.6399999999985,29
5519120c-af24-3f39-bb6c-b7fc0b50c8e6,PCP22063,630 S MAIN ST,LANESBOROUGH,MA,01237-9726,42.535857,-73.24113299999999,413-236-0995,8137.079999999994,63
b5224693-0819-3f63-9e94-ab96794d5ccc,PCP23079,FAMILY CONSULTANTS,SAGAMORE BEACH,MA,02562,41.782888,-70.5321,508-833-3800,10591.119999999992,82
b08d2ff9-6036-3c87-b003-6cfda96c3c89,BEHAVIORAL HEALTH AFFILIATES  LLC,84 HIGH ST,MEDFORD,MA,02155-3844,42.423844,-71.10923100000001,781-393-0009,2970.6799999999994,23
13f33e71-812a-3179-b2e2-d4f59a4e7e75,PCP23136,5 MARKET SQ,AMESBURY,MA,01913-2440,42.851284,-70.955837,978-621-2405,12786.83999999999,99
14bf7ede-f819-37af-8fd6-6311f46afc65,PCP23255,1330 BEACON ST,BROOKLINE,MA,02446-3200,42.323853,-71.142003,781-799-4812,4908.079999999997,38
5bf83e18-ef6e-33a8-ad5b-86cb70b4795a,PCP23572,817 MERRIMACK ST,LOWELL,MA,01854-3571,42.63898,-71.321141,978-452-0672,7878.759999999994,61
d494db50-1310-3c66-b537-886d40d8f6d4,PCP23688,60 MUNSON MEETING WAY,CHATHAM,MA,02633-1992,41.621629,-69.98195600000001,508-945-5771,6070.519999999996,47
0b7be8a5-b5c0-3b3a-8ef3-c20456a4c383,PCP23827,50 MEMORIAL DR,LEOMINSTER,MA,01453-2238,42.520876,-71.770611,978-466-5155,6845.479999999995,53
78a11f16-e161-3dfa-91fa-16af7109cea0,PCP23885,37 EDGERTON DR,NO FALMOUTH,MA,02556-2821,41.601508,-70.639317,508-563-3003,7620.439999999994,59
8faadfc5-b60b-3093-a76e-93bb9b31c96f,PCP24117,1415 BEACON ST,BROOKLINE,MA,02446-4819,42.323853,-71.142003,617-755-6436,3745.6399999999985,29
5ec449c0-7654-355d-9f8e-49c975d426b0,PRESCRIPTION ORTHOPEDIC AND SPORTS THERAPY,223 CHIEF JUSTICE CUSHING HWY,COHASSET,MA,02025-1391,42.262428,-70.79888299999999,781-838-8767,4003.959999999998,31
2ea48dbe-3a1e-3c10-b970-e6b4e0ea8018,PCP24791,52 BRIGHAM ST,NEW BEDFORD,MA,02740-2210,41.661303000000004,-70.937913,508-951-4004,6070.519999999996,47
5eeacb40-eaaa-3a42-b208-0b257414c2a0,PCP25231,191 LOWER ST,SHELBURNE FLS,MA,01370-9402,42.609509,-72.74698000000002,413-625-9530,5812.199999999996,45
90e78970-c3ed-39a9-8b9a-97700d39d21b,PCP25388,78 MIDDLE ST,FAIRHAVEN,MA,02719-3050,41.633619,-70.871306,508-994-9574,3228.999999999999,25
119e3b85-1b3f-3f06-822e-ff34f109edd5,PCP25523,234 CABOT ST,BEVERLY,MA,01915-5702,42.556659,-70.84496,978-927-1441,3874.7999999999984,30
10968ba2-75e7-351a-a73a-c37a2a8dfcfc,PCP25544,65 EASTERN AVE,ESSEX,MA,01929-1300,42.64042,-70.77117199999999,978-290-8889,1937.4000000000005,15
279b2a85-ab64-3dec-90df-fbca8b479db5,PCP25692,48 CHERRY ST,WENHAM,MA,01984-1313,42.600633,-70.883303,978-473-6078,2712.3599999999997,21
b3abd026-7e38-369d-837d-26d8ef20688d,PCP25722,236 HIGHLAND AVE,SOMERVILLE,MA,02143-1495,42.390445,-71.101033,617-666-4400,9557.839999999993,74
f8b7d134-89fd-3277-91ac-d92f6a44999b,PCP25786,221 MOUNT AUBURN ST,CAMBRIDGE,MA,02138-4849,42.376043,-71.11868,617-797-7348,6457.999999999995,50
5f69238d-cce3-3a8d-82ef-68ccc7896825,PCP25824,65 WACHUSETT RD,NEEDHAM,MA,02492-3922,42.281593,-71.242414,781-449-1995,1291.6000000000001,10
1f333977-ac45-3bef-8e02-48c2aff5491a,PCP25882,23 WATER ST,HOLLISTON,MA,01746-2364,42.195951,-71.45343000000001,508-429-8767,1679.0800000000004,13
e8134182-3ed9-3b41-abdc-9f4a47b23f2d,PCP25990,33 ELECTRIC AVE,FITCHBURG,MA,01420-7954,42.601977000000005,-71.81586999999999,978-343-4747,2583.2,20
04c1f9c4-2090-3479-af5a-9cdcca7dda97,PCP26065,1350 BELMONT ST,BROCKTON,MA,02301-4430,42.082543,-71.024638,508-580-2137,1033.28,8
e89fc67f-7cf0-3687-bf77-b4afa1a88fd8,PCP26392,183 W STATE ST,GRANBY,MA,01033-9611,42.244949,-72.50014300000001,413-222-0998,3487.319999999999,27
504c29d0-6f98-3282-a3fe-962df55f7808,PCP26696,505 NASHUA RD,DRACUT,MA,01826-1929,42.679722999999996,-71.30068,978-674-0271,3616.4799999999987,28
841a1423-b723-32c7-a512-161310612a3e,MOUNT HOPE PHYSICAL THERAPY,1738 GAR HWY,SWANSEA,MA,02777-3906,41.758163,-71.21418100000001,508-379-0090,6070.519999999996,47
56e68227-f853-3628-ba75-95b20527b7cb,PCP27169,110 HAVERHILL RD,AMESBURY,MA,01913-2131,42.851284,-70.955837,978-388-6191,8007.919999999994,62
1055cb51-3d14-3737-b4a8-0203cd752ac9,PCP27216,20 LONG MEADOW RD,LINCOLN,MA,01773-4810,42.425506,-71.310812,781-259-3434,7620.439999999994,59
aaf9b793-71b4-346d-baea-62b744d94494,PCP27271,537 ROUTE 28,HARWICH PORT,MA,02646-1894,41.670154,-70.06519399999999,508-430-8672,5812.199999999996,45
28708659-b360-34a9-8a97-8a063da6e9e0,AUDIOLOGY AND HEARING SOLUTIONS  INC,955 MAIN ST,WINCHESTER,MA,01890-4303,42.452752000000004,-71.144319,781-218-2225,2583.2,20
fedeff02-fcd0-3c21-a73e-d0d11a998ba4,PCP27454,PO BOX,HAMILTON,MA,01936-0296,42.626222999999996,-70.85723,978-468-3056,10591.119999999992,82
b34ef270-b933-3be6-9dc0-8bc3819b7db8,PCP27881,77 E MERRIMACK ST,LOWELL,MA,01852-1900,42.63898,-71.321141,978-452-37117,8782.879999999994,68
7e808a11-4896-346f-a40f-39dc9402f8c7,PCP27916,233 HARVARD ST,BROOKLINE,MA,02446-5017,42.323853,-71.142003,617-512-8346,6845.479999999995,53
43b0ced9-86dc-3a28-a834-18675130d009,PCP28044,70 BROADWAY ST,WESTFORD,MA,01886-2148,42.585541,-71.44025,617-480-7357,7620.439999999994,59
02c83e60-3465-320f-9259-ccc8ff20832c,PCP28253,48 N PLEASANT ST,AMHERST,MA,01002-1758,42.363534,-72.50729100000001,413-256-3456,9686.999999999993,75
d0bc7674-3c2a-3244-886f-f7b2a240f68f,PCP28384,6 CHAUNCY WAY,CATAUMET,MA,02534-0820,41.688804,-70.639267,508-563-5242,11495.23999999999,89
40b31ec9-f9fa-31aa-a969-696b0ed228cb,PCP28800,GAIL A RACICOT EDD,SHREWSBURY,MA,01545-5265,42.284766999999995,-71.714228,508-752-7514,12528.51999999999,97
cd1f5054-2a98-3665-94db-572a81a2e874,PCP29200,300 W MAIN ST,NORTHBOROUGH,MA,01532-2132,42.323342,-71.646236,508-366-77072,1033.28,8
751be19f-90e3-3838-a5e4-dd777953ffca,PCP29267,283 LOWELL ST,LYNNFIELD,MA,01940-1135,42.534146,-71.038333,781-334-4005,4649.7599999999975,36
8e6c904a-a1a8-33fc-be79-27e41933b9cc,PCP29348,14 PRENTICE AVE,MILFORD,MA,01757-2026,42.158691999999995,-71.521419,508-634-7799,9041.199999999993,70
585ccce5-aa28-30b3-9494-fe92005dced3,PCP29519,40 S ST,MARBLEHEAD,MA,01945-3274,42.495629,-70.83582,,11366.07999999999,88
4ed706ff-0933-348d-9a14-6121280d9db1,PCP29620,46 SUFFIELD ST,AGAWAM,MA,01001-1753,42.064731,-72.653477,413-786-3701,4262.279999999998,33
fafbeb88-4ef5-365a-83a1-e1cffd72c9e0,PCP30027,A BALANCED WAY,STOW,MA,01775-1035,42.429688,-71.512514,978-897-9797,3228.999999999999,25
4bf8acfd-fec0-350f-ab95-064ffeb59e83,PCP30053,1180 BEACON ST,BROOKLINE,MA,02446-3806,42.323853,-71.142003,617-731-4837,15111.719999999987,117
ff76282f-7968-39c7-82f9-2d86c93990a6,PCP30512,10 RICHARDS AVE,PAXTON,MA,01612-1120,42.311693,-71.940282,508-757-0376,17049.119999999984,132
3aa3a744-7d82-38fc-a8b8-87a4f1ab78de,PCP30550,1 PROSPECTOR RD,BILLERICA,MA,01821-3046,42.559673,-71.260947,978-667-8977,8524.559999999994,66
3bafdcf3-4fa9-3737-8cbe-52e0914c880d,PCP30734,189 MAY ST,WORCESTER,MA,01602-4339,42.269478,-71.807783,508-471-9258,7620.439999999994,59
e613f5a1-7588-3efe-8701-fa9baf3241ff,PCP31073,338 TREMONT ST,REHOBOTH,MA,02769-2034,41.846878000000004,-71.24486999999999,508-223-3434,16790.799999999985,130
68797de0-3337-3617-8b07-1a919f25bb73,PCP31226,240 CONCORD AVE,CAMBRIDGE,MA,02138-1337,42.376043,-71.11868,617-497-9139,3358.159999999999,26
52bf0815-4d05-3e0b-bb3c-68c9f1d01a23,PCP31322,1415 BEACON ST,BROOKLINE,MA,02446-4819,42.323853,-71.142003,617-732-0005,6587.159999999995,51
e1f57446-8173-348e-a3d0-096ce28ee8d1,PCP31509,17 HENSHAW ST,BRIGHTON,MA,02135-2905,42.33196,-71.020173,617-787-4349,7620.439999999994,59
2f09e5c4-f013-3b8e-aa9d-6564542502a0,PCP31724,300 NEWBURYPORT TRUNPIKE,ROWLEY,MA,01969,42.721495000000004,-70.886637,978-948-3900,3228.999999999999,25
d7b5b9be-bda7-3f1d-89db-619263cf6801,PCP31739,30 LINCOLN ST,NEWTON,MA,02461-1527,42.331876,-71.208402,617-935-9116,3745.6399999999985,29
d9f38152-255d-3619-a83f-45b56649563e,PCP31900,3 CONCORD AVE,CAMBRIDGE,MA,02138-3616,42.376043,-71.11868,617-576-0854,6974.639999999995,54
079c8e70-6025-3f0b-857f-d6ecbaf98823,PCP32015,5 WATSON RD,BELMONT,MA,02478-3900,42.395317,-71.180284,781-899-1946,4520.599999999998,35
e7be2bea-4a1b-3bac-9874-3b149652461a,PCP32467,3 OAKDALE LN,LINCOLN,MA,01773-1710,42.425506,-71.310812,781-259-9911,9041.199999999993,70
5835c23e-ef48-388e-b438-29e6a62d037c,PCP32479,16 HASTINGS RD,SPENCER,MA,01562-1408,42.247211,-71.991867,508-885-3861,10461.959999999992,81
4cd70be8-b2cd-35be-ab5b-75a797a61607,PCP32501,221 ISLINGTON RD,AUBURNDALE,MA,02466-1022,42.331876,-71.208402,617-969-6430,3487.319999999999,27
4d9e063a-001a-3050-b185-3f53e1763ae4,PCP32637,1476 G DRIFT RD,WESTPORT,MA,02790-1620,41.579794,-71.081822,508-636-6600,8524.559999999994,66
e64d1d3a-dad4-33ec-ad26-f9238afc6abb,PCP32689,29 COLLEGE ST,SOUTH HADLEY,MA,01075-1156,42.256208,-72.58103,413-532-3125,1679.0800000000004,13
a2c1d068-e678-3f50-8175-93d96164f238,PCP32719,509 SOUTHWICK RD,WESTFIELD,MA,01085-4734,42.138838,-72.755911,413-875-5263,387.48,3
c994d615-bb7f-3745-a391-b1b4f4748a1a,PCP32773,115 MILL ST,BELMONT,MA,02478-1064,42.395317,-71.180284,617-855-2854,2454.04,19
809b8287-b750-3105-8c9f-b06a3804fc4b,PCP32881,324 GROVE ST,WORCESTER,MA,01605-3936,42.269478,-71.807783,508-471-7165,2195.7200000000003,17
b81ddc7b-030c-3fa7-acf6-4ae14c4a447e,PCP32963,474 STATE RD,WESTPORT,MA,02790-3427,41.579794,-71.081822,508-679-9991,16274.159999999985,126
0cfee501-e8b2-366f-aaed-72911a8c9aae,PCP33028,10 MAIN ST,ANDOVER,MA,01810-3700,42.648044,-71.161751,978-247-6006,8912.039999999994,69
d70e4d56-753f-3c43-b222-59b74e018fd2,PCP33054,505 MIDDLESEX TPKE,BILLERICA,MA,01821-3584,42.559673,-71.260947,978-663-7077,6974.639999999995,54
76834a5c-65a1-3124-8fcf-bbd2876eddc8,PCP33193,124 HARVARD ST,BROOKLINE,MA,02446-6478,42.323853,-71.142003,617-947-7473,4649.7599999999975,36
6cb63e15-489e-39cb-a24d-1a730e045d86,PCP33635,1101 BEACON ST,BROOKLINE,MA,02446-5587,42.323853,-71.142003,617-566-6560,4003.959999999998,31
7f886316-a86a-3921-95ad-6dcf0532c3dd,PCP33663,339 BROADWAY,CAMBRIDGE,MA,02139-1839,42.376043,-71.11868,617-661-7315,2583.2,20
59631983-a65f-3984-bddc-a00e5e9b64d7,PCP33856,531 KING ST,LITTLETON,MA,01460-1279,42.535931,-71.490569,978-486-0009,7878.759999999994,61
d1af8327-fe86-3aab-b9af-8d3443f72995,PCP34031,62 MAIN ST,UPTON,MA,01568-1611,42.176526,-71.603588,508-529-2700,1937.4000000000005,15
77e2fd66-4ccc-395b-9b7d-7486b03a7f9b,PCP34194,1 MIFFLIN PL,CAMBRIDGE,MA,02138-4946,42.376043,-71.11868,617-460-1053,7362.119999999994,57
cfe3a28d-6e30-35e1-af49-25cbcdef2901,GEORGE J DUCACH DPM PC,1261 FURNACE BROOK PKWY,QUINCY,MA,02169-4721,42.261006,-71.008988,617-773-4300,4262.279999999998,33
dd43b798-6c99-3cdb-bd19-65f1cc2a370d,PCP34565,410 A SWAMP RD,RICHMOND,MA,01254-0428,42.383497,-73.359187,413-698-8123,7749.599999999994,60
2fd11361-77b2-3054-92c9-8272d200f174,PCP34696,681 FALMOUTH RD,MASHPEE,MA,02649-6310,41.617622999999995,-70.492713,508-477-1802,6328.839999999996,49
47a48a73-79df-32e6-8596-dfd44f2279e9,PCP34730,481 BEDFORD ST,BRIDGEWATER,MA,02324-3152,41.972376000000004,-70.978773,508-697-8899,8395.399999999994,65
2b490875-3d4a-3ffe-bf0c-d1a7561c055c,SOUTHERN NEW ENGLAND EYE INC,231 NEW BOSTON RD,FALL RIVER,MA,02720-5563,41.725351,-71.094162,508-673-6262,3616.4799999999987,28
11dca0c5-67e2-3a4b-b818-7e534a4cd890,PCP35331,318 HARVARD ST,BROOKLINE,MA,02446-2912,42.323853,-71.142003,617-232-9200,4003.959999999998,31
86827dbd-3582-3fdc-8eb9-13f6b428d228,PCP35415,48 MAPLE AVE,SHREWSBURY,MA,01545-2938,42.284766999999995,-71.714228,508-831-7710,12011.87999999999,93
78e33fa6-7b7b-3e06-a0ad-1287b3e05a53,PCP35508,27 NORMAC RD,WOBURN,MA,01801-2012,42.488769,-71.154438,781-460-0939,4908.079999999997,38
0c49816c-690f-3dbc-ab1c-19dc996c02f4,LEXINGTON WALTHAM DERMATOLOGY GRP PC,57 BEDFORD ST,LEXINGTON,MA,02420-4550,42.445221999999994,-71.23001500000001,781-862-2322,5424.719999999997,42
df7e48da-1419-3fbf-a287-21dd037e75da,PCP35693,115 MAIN ST,NORTH ADAMS,MA,01247-3409,42.675551,-73.11810899999999,413-662-2151,2841.5199999999995,22
ecdc917d-a909-3a96-81b7-d6463b45afa5,CHICOPEE EYECARE  P.C.,113 CTR ST,CHICOPEE,MA,01013-1667,42.175668,-72.572257,413-592-7777,7491.279999999994,58
efb7289e-5b25-3eb1-a837-584a5dd5f5b8,PCP35956,53 LAUREL RD,WESTON,MA,02493-1610,42.360502000000004,-71.303433,781-893-4032,4262.279999999998,33
8ee84a6f-c483-371a-bfe0-9c63976ecb5a,PCP36008,7 HADLEY ST,SOUTH HADLEY,MA,01075-1147,42.256208,-72.58103,413-588-1232,8782.879999999994,68
5e2e79df-a14a-3119-ad13-3250b291d079,ENT SURGERY ASSOCIATES LLC,725 CONCORD AVE,CAMBRIDGE,MA,02138-1040,42.376043,-71.11868,617-499-9933,7232.959999999995,56
785210ac-1869-3a47-be8d-e85ee984ffa5,PCP36129,65 FREMONT ST,MARLBOROUGH,MA,01752-1271,42.349616999999995,-71.547214,508-485-6653,3358.159999999999,26
f5ad3535-8419-39b9-9421-0ee7bc3b26b2,GREATER MILFORD NEUROLOGY  LLC,54 HOPEDALE ST,HOPEDALE,MA,01747-1700,42.123007,-71.53140400000001,508-473-4323,3874.7999999999984,30
fa49fc8d-ba48-3c45-89b7-ac0fb597bbe8,PCP36132,844 FRANKLIN ST,WRENTHAM,MA,02093-1223,42.052671000000004,-71.356858,508-384-7383,3874.7999999999984,30
3ad44914-0d76-3fe5-a307-dcfd45d2b957,PCP36795,350 BEDFORD ST,LAKEVILLE,MA,02347-2127,41.834412,-70.957166,508-946-4777,9686.999999999993,75
fa2fddb2-58af-3e52-b9b0-e42c35bfe84a,PCP37066,563 MAIN ST,BOLTON,MA,01740-1300,42.439941,-71.601879,978-779-5539,5037.239999999997,39
1adf4d50-f081-37cc-8241-5946f11f0858,PCP37218,9 EVERGREEN ST,MEDWAY,MA,02053-1515,42.156203000000005,-71.43034499999999,508-533-6794,4003.959999999998,31
4471b385-a75d-35a1-838a-30a0909de267,PCP37644,136 GARDNER ST,HAMILTON,MA,01936,42.626222999999996,-70.85723,978-969-3744,2324.88,18
f79dcff2-4144-315e-8552-e2a8de442c79,PCP37647,88 MAPLE ST,WALTHAM,MA,02453-4471,42.388921,-71.24226800000001,781-891-8388,8266.239999999994,64
dd435bee-a8d4-33d6-9c58-e99ef679ee90,PCP37682,300 CHESTNUT ST,NEEDHAM,MA,02192,42.281593,-71.242414,781-449-7888,7362.119999999994,57
3a8fa4ca-d3b1-3e18-8ea7-f00375ef6cae,PCP37941,20 HOPE AVE,WALTHAM,MA,02453-2717,42.388921,-71.24226800000001,781-891-1447,6845.479999999995,53
8d004a05-5391-3e80-82a9-d51d28ccc405,LIVING WELL CHIROPRACTIC  LLC,535 CURRAN HWY,NORTH ADAMS,MA,01247-3901,42.675551,-73.11810899999999,413-663-5500,8912.039999999994,69
01c02123-5d0f-3ef4-ae1c-cc91518f729a,PCP38777,421 BROADWAY,EVERETT,MA,02149-3435,42.405938,-71.054649,617-387-1904,2066.5600000000004,16
159f077a-8598-357d-99e1-0b32412cd0fd,PCP38793,100 HIGHLAND ST,MILTON,MA,02186-3877,42.241557,-71.082432,617-698-6105,2324.88,18
e9713fb1-1e6d-331e-8a3c-4cd83db9fb08,GROSSO CHIROPRACTIC  P.C.,615 WESTFIELD ST,WEST SPRINGFIELD,MA,01089-3865,42.125451,-72.649734,413-736-1680,5037.239999999997,39
8f8511a3-705e-341a-b7b8-b536f9fb376f,PCP39336,955 MAIN ST,WINCHESTER,MA,01890-4303,42.452752000000004,-71.144319,781-729-3008,5941.359999999996,46
866f38cd-af49-36c2-a073-ee031c7609cd,READING FAMILY MEDICINE PC,30 NEW CROSSING RD,READING,MA,01867-3270,42.535183,-71.105423,781-942-0380,5553.8799999999965,43
7373f03d-d59a-388a-96af-5af07b18626f,PCP39756,714 ROUTE 6A 706A,YARMOUTH PORT,MA,02675-2000,41.706920000000004,-70.221117,508-362-1600,4262.279999999998,33
405c1042-e54b-3ff3-a5f8-d6a0dcf03518,AUBURN PODIATRY LLP,492 WASHINGTON ST,AUBURN,MA,01501-5708,42.198708,-71.846006,508-832-6075,4391.439999999998,34
a0541bbb-46e8-3293-9d1d-08246756db63,PCP40373,402 A HIGHLAND AVE J,SOMERVILLE,MA,02144-2511,42.390445,-71.101033,617-284-6252,5812.199999999996,45
0301d6f1-28a8-3f70-8809-062032a7f3a0,PCP40687,7 LINCOLN CIR,BELMONT,MA,02478-3533,42.395317,-71.180284,617-726-1736,7620.439999999994,59
db6c9e2a-949f-3ccb-87fd-a2eeb0bdf5f1,PCP40864,87 WASHINGTON ST,BOXFORD,MA,01921-1240,42.683108000000004,-71.01833,617-893-8807,1033.28,8
19c4879a-4b3d-3e85-b15c-15fcd2a84762,PCP40906,52 PICKERING ST,NEEDHAM,MA,02492-3159,42.281593,-71.242414,781-444-0505,6845.479999999995,53
94f69f9a-4465-3b56-9ae7-d2399db7f250,STEVEN T. PERRYMAN OD INC.,10 CEDAR ST,HOPKINTON,MA,01748-1222,42.224096,-71.54048900000001,508-435-4711,1679.0800000000004,13
90dd3724-98b1-3b27-8543-515b1e039e98,PSYCHIATRY AND FAMILY COUNSELING OF WORCESTER COUNTY  LLP,52 CEDAR ST,WORCESTER,MA,01609-2134,42.269478,-71.807783,508-752-5191,7103.799999999995,55
274d1255-77fe-357c-961d-6f5a50d917f3,PCP42323,101 AMESBURY ST,LAWRENCE,MA,01840-1311,42.700272999999996,-71.161357,978-975-1497,516.64,4
db6e0cea-70b9-3cab-b8fe-1bd1b4b649c3,PCP42340,69 MALDEN ST,REVERE,MA,02151-2234,42.421005,-70.99036,781-284-3200,4003.959999999998,31
bfc315bf-0b95-3a8d-b1b0-94ffdf55c58e,DERMATOLOGY SERVICES INC,145 FAUNCE CORNER MALL RD,NORTH DARTMOUTH,MA,02747-6216,41.646686,-70.999158,508-993-7601,4908.079999999997,38
928b8862-119d-3482-a6a5-d8b4df7abde7,PCP43302,1191 CHESTNUT ST,NEWTON UPPER FALLS,MA,02464-1351,42.331876,-71.208402,617-243-3937,7491.279999999994,58
794b4d6d-298f-3220-808e-e56a79aa6b41,ESSEX SURGICAL ASSOCIATES  PC,100 CUMMINGS CTR,BEVERLY,MA,01915-6115,42.556659,-70.84496,978-922-9226,10203.639999999992,79
37a78ec3-505f-361f-b6fa-aaafed77cd01,PCP43815,14 LOON HILL RD,DRACUT,MA,01826-4067,42.679722999999996,-71.30068,978-934-94442,3228.999999999999,25
945768aa-2200-3476-b042-993a9df74c65,BACK TO YOU PHYSICAL THERAPY AND SPORTS MEDICINE INC.,19 N MAIN ST,SHERBORN,MA,01770-1546,42.231947,-71.372963,617-571-7323,4262.279999999998,33
20763d7c-e939-3957-9426-5b8ef94fb409,PCP44491,1170 BEACON ST,BROOKLINE,MA,02446-3963,42.323853,-71.142003,617-731-0888,11753.55999999999,91
62b0b608-98d7-399c-bc4d-ff78143e82dc,PCP44540,15 PHEASANT RUN,WELLFLEET,MA,02667-7027,41.916805,-70.0271,617-538-3245,7878.759999999994,61
411735bd-f830-3011-a59f-c3f84a1f042e,PCP44598,30 HARDWICK RD,PETERSHAM,MA,01366-9701,42.459222,-72.216335,978-724-3424,5553.8799999999965,43
58f5b392-6bfd-3c4a-bfd6-061e7cf396b2,PCP44672,6 WESTRIDGE RD,HUDSON,MA,01749-2863,42.389071,-71.545864,978-568-0025,5424.719999999997,42
8a31a7a3-30cb-3cd9-8baa-025cae6f4e4c,PCP44938,62 S MAIN ST,SHARON,MA,02067-1920,42.108463,-71.185182,781-784-1700,7620.439999999994,59
cd488a71-266c-3967-9bfd-7fffc77b5dc7,PCP46475,28 GREEN ST,NEWBURY,MA,01951-1721,42.770406,-70.872417,978-499-7622,3874.7999999999984,30
223bac2e-df65-32f8-ab52-a8b064c00f15,PCP46659,519 AMERICAN LEGION HWY 8,WESTPORT,MA,02790-4100,41.579794,-71.081822,774-309-3555,10074.479999999992,78
c9c9bbf0-c1c0-30fe-94d3-a908a24ebb48,PCP46837,61 MAIN ST,BLACKSTONE,MA,01504-2215,42.039991,-71.53240600000001,508-752-4709,5553.8799999999965,43
9b85cf38-ccfb-36f8-82d9-3aab7a24ac0b,PCP46940,113 BELMONT ST,BELMONT,MA,02478-3603,42.395317,-71.180284,617-731-9096,1679.0800000000004,13
f34ed325-cb86-3ac3-ae08-6febb2cbd26f,PCP47573,515 PROVIDENCE HWY,DEDHAM,MA,02026-6817,42.246871999999996,-71.179462,617-971-8501,9299.519999999993,72
f9d47b3e-ff35-3557-b526-2130d704dc42,PCP47651,462 MAIN ST,AGAWAM,MA,01001-1833,42.064731,-72.653477,413-786-9704,2066.5600000000004,16
57af70ba-946b-3109-89a8-82481c300705,COMPREHENSIVE PHYSICAL THERAPY  PC,1037 MAIN ST,LEICESTER,MA,01524-1313,42.238427,-71.91234,508-892-1335,23377.959999999977,181
c687b364-0f86-39fe-9669-8a067a18528c,PCP47827,30 CONWELL ST,PROVINCETOWN,MA,02657-1548,42.056913,-70.190488,401-855-4001,8653.719999999994,67
392f8025-35d4-3fde-808d-dd35e93ac76c,PCP47990,70 EMORY ST,ATTLEBORO,MA,02703-3142,41.931653000000004,-71.294503,508-226-1693,3616.4799999999987,28
227059b2-fe7b-306a-beda-3b7ca2754b06,PCP48097,5 SPRING ST,CHICOPEE,MA,01013-2610,42.175668,-72.572257,413-594-4747,4649.7599999999975,36
f9dd3d89-dbdf-336f-bb7a-fbdbf8d4cce4,PCP49032,227 UNION ST,NEW BEDFORD,MA,02740-5950,41.661303000000004,-70.937913,508-292-7170,4908.079999999997,38
b10ef267-a36b-3700-bb75-74f8873f51ed,KENDALL SQUARE THERAPEUTIC HEALTH CENTER  P.C.,15 STORY ST,CAMBRIDGE,MA,02138-4950,42.376043,-71.11868,617-441-0101,6070.519999999996,47
12f0f166-6c49-3f41-abf4-3b741facb987,ORTHOPAEDICS NORTHEAST  P.C.,575 TURNPIKE ST,NORTH ANDOVER,MA,01845-5937,42.673909,-71.091334,978-794-1946,2454.04,19
74ff4462-420b-3233-b9b8-eb9ffd44469d,EDGARDO C. ANGELES  MD AND ASSOCIATES  PC,511 W GROVE ST,MIDDLEBORO,MA,02346-1458,41.894223,-70.925689,508-923-3427,1679.0800000000004,13
977d8935-61d9-3e88-9c38-17f15536d65a,PCP49360,100 HIGHLAND ST,MILTON,MA,02186-3802,42.241557,-71.082432,617-696-0302,11495.23999999999,89
a0e3f669-d53f-3554-a7d5-144f422a342b,PERFORMANCE PHYSICAL THERAPY INC,99 4TH ST,CHELSEA,MA,02150-2336,42.396824,-71.031348,617-889-2500,20148.95999999998,156
519d41a1-0b82-3e6b-b4fe-6c00b050c881,PCP49519,1200 CONVERSE ST,LONGMEADOW,MA,01106-1760,42.047565000000006,-72.57113000000001,413-567-0380,10461.959999999992,81
5f6112a1-a6d1-36bb-bf1c-0d5aa41de8c9,PCP49548,170 GOVERNORS AVE,MEDFORD,MA,02155-1643,42.423844,-71.10923100000001,781-306-6000,4649.7599999999975,36
ec000aef-606c-3d72-b54d-22248b3069f9,MIDDLETON FAMILY MEDICINE URGENT CARE  LLC,147 S MAIN ST,MIDDLETON,MA,01949-2446,42.610513,-71.007118,978-774-2555,2454.04,19
759663cc-0b5e-3e2a-98b3-e239ef48af01,JULIE A. BURKE,383 ELLIOT ST,NEWTON UPPER FALLS,MA,02464-1126,42.331876,-71.208402,617-964-3332,4908.079999999997,38
6841bbd7-8041-3a69-8c15-3cff12d329ce,PCP51387,22 MILL ST,ARLINGTON,MA,02476-4738,42.418721999999995,-71.163912,617-623-6010,6974.639999999995,54
bba13c6a-577a-3c8c-9bff-c4e2a1655d07,GEORGE SVAJIAN PH D AND ASSOCIATES INC,1244 BROADWAY,RAYNHAM,MA,02767-1973,41.930477,-71.046214,508-824-1780,7232.959999999995,56
860f29f2-5cc3-302b-b387-a8a29f3f17de,BOSTON PHYSICAL THERAPY AND WELLNESS INC.,275 MYSTIC AVE C,MEDFORD,MA,02155-6301,42.423844,-71.10923100000001,781-572-2965,5941.359999999996,46
0cd629bb-04bb-39f5-87b4-e6feb140d173,PCP53365,8 TRUMBULL RD,NORTHAMPTON,MA,01060-3080,42.327044,-72.67463000000001,413-230-9227,1291.6000000000001,10
1c064e6a-e1a5-3124-b294-68ae3a9d6487,ALL-ACCESS PHYSICAL THERAPY  INC.,904 C BOSTON TPKE,SHREWSBURY,MA,01545-3303,42.284766999999995,-71.714228,508-845-3500,7232.959999999995,56
3bdd7318-5a9c-3ecf-ba3e-7163a602bdf4,PCP53831,638 ADAMSVILLE RD,WESTPORT,MA,02790-5031,41.579794,-71.081822,508-636-4769,9041.199999999993,70
48fb01a5-9cc5-3556-912b-35dd85430d9f,PCP54053,301 MAIN ST,READING,MA,01867-3616,42.535183,-71.105423,781-942-3660,4520.599999999998,35
6cfa1cb7-35fc-3389-998a-06e0e8c62116,PCP54232,20 S COTTAGE RD,BELMONT,MA,02478-1157,42.395317,-71.180284,617-864-8410,7491.279999999994,58
d86e15fb-290b-36d8-ad51-b32ceda12b77,PCP54507,15 MIDSTATE DR,AUBURN,MA,01501-1856,42.198708,-71.846006,774-239-2702,6587.159999999995,51
8514043d-682b-3748-9038-8e4850dfd495,PCP55268,328 SHREWSBURY ST,WORCESTER,MA,01604-4613,42.269478,-71.807783,508-757-5520,5037.239999999997,39
84f858ae-39ce-3bd0-8685-9f7e98b8a03e,PCP55732,45 LYNMAN ST,WESTBORO,MA,01581,42.267441,-71.617492,617-501-5515,9170.359999999993,71
4b4d5880-b0ad-3246-9804-078e99f5bfa8,CHARIS CENTER SOUTH  INC.,6 PLYMPTON ST,MIDDLEBORO,MA,02346-1602,41.894223,-70.925689,508-947-1901,6974.639999999995,54
06831225-d9a6-36d3-9add-5417f63a0c7d,PCP56672,48 N PLEASANT ST,AMHERST,MA,01002-1741,42.363534,-72.50729100000001,413-256-0947,3745.6399999999985,29
f93e59e2-c0e4-3118-a1c2-3234c6dde120,CHARIS CENTER SOUTH  INC.,604 FOUNDRY ST,EASTON,MA,02334,42.040515,-71.109329,508-947-1901,30998.39999999997,240
001d000f-be37-3cf2-9339-6b613dd0117d,EYE ASSOCIATES PC,500 SALEM ST,WILMINGTON,MA,01887-1200,42.564646999999994,-71.164516,978-658-2880,3487.319999999999,27
dfee549c-64ff-3b59-9215-0321df1cf40f,ORTHO SPORT PHYSICAL THERAPY INC,649 OAK ST,EAST BRIDGEWATER,MA,02333-1215,42.037278,-70.94045899999999,508-588-2800,4520.599999999998,35
de32e817-c850-34b8-9bb1-229c9f0cb4c3,PCP58020,470 WASHINGTON ST,NORWOOD,MA,02062-2343,42.187364,-71.195971,781-255-0013,1679.0800000000004,13
e1b73f1e-e739-3b76-a012-c585efb761d9,PCP58317,280 WASHINGTON ST,BRIGHTON,MA,02135-3511,42.33196,-71.020173,617-254-1477,4520.599999999998,35
7c2ca218-6216-3fba-a44f-d91e291ac173,PCP58326,25 BANK ROW ST,GREENFIELD,MA,01301-3599,42.614671,-72.597063,413-320-6950,9299.519999999993,72
60ff6a54-c97b-3af7-8e7a-84df868cb747,DR. GINO MERCADANTE  P.C.,200 CTR ST,LUDLOW,MA,01056-2772,42.183577,-72.457812,413-589-7176,4003.959999999998,31
78dc1227-381d-3b2b-b773-0b7713bf2daf,PCP58567,23 FRUIT ST,WORCESTER,MA,01609-2126,42.269478,-71.807783,508-831-7745,9945.319999999992,77
70e61069-da4c-3ace-9282-81b2373913c6,KENNETH M REED MD PC,110 LONG POND RD,PLYMOUTH,MA,02360-2642,41.897892,-70.62403,508-747-4424,1033.28,8
a93cc620-5371-39b4-a4c7-85c8a56609a6,PEDIATRICS WEST PC,133 LITTLETON RD,WESTFORD,MA,01886-3198,42.585541,-71.44025,978-577-0437,5166.399999999997,40
b68e69a9-edc3-38c4-9fe1-f4c87fe882a3,PCP59336,6 HILLSIDE TER,LEXINGTON,MA,02420-3405,42.445221999999994,-71.23001500000001,781-861-9797,2583.2,20
cd19146d-aed8-31e0-baa8-1dc7a6f07e05,JAMES LEVINE AND ASSOCIATES  P.C.,9 COLLEGE ST,SOUTH HADLEY,MA,01075-1421,42.256208,-72.58103,413-534-7400,6070.519999999996,47
bee99f4b-dbff-334b-ba02-f90f8e199aca,DERMATOLOGY OF CAPE COD  PC,37 EDGERTON DR,NO FALMOUTH,MA,02556-2821,41.601508,-70.639317,508-563-2550,8137.079999999994,63
b2872674-997c-30cd-862d-eeeb72a4a7bc,PCP60018,45 STERLING ST,WEST BOYLSTON,MA,01583-1200,42.369417,-71.785036,978-906-1753,36423.12000000007,282
af697ac7-5112-3c05-9ea7-01e65d214259,PCP60041,23 WATER ST,HOLLISTON,MA,01746-2364,42.195951,-71.45343000000001,508-429-2128,3745.6399999999985,29
ad68308c-f8ec-3e30-b1ee-b0d286047f64,PEABODY PODIATRY LLC,6 ESSEX CTR DR,PEABODY,MA,01960-2906,42.534279,-70.969782,978-531-9969,2195.7200000000003,17
e0eec05c-8ee7-357b-90c8-9656b914ccc8,PCP60236,600 BROADWAY,SAUGUS,MA,01906-3201,42.468432,-71.01394599999999,781-231-2330,4133.119999999998,32
4786ed54-9ddb-3063-b578-370787aef828,PCP61278,52 NOON HILL AVE,NORFOLK,MA,02056-1161,42.116244,-71.329274,508-560-4007,1033.28,8
f7d09361-3f06-3381-881d-104239e98d7d,MOSS GROUP INC,363 GREAT RD,BEDFORD,MA,01730-2832,42.499295000000004,-71.281889,978-835-5000,5166.399999999997,40
24f54a69-3831-3f27-be74-95f2e87cc2de,SCACCIA PHYSICAL THERAPY AND SPORTS CONDITIONING  LLC,1595 BRIDGE ST,DRACUT,MA,01826-2614,42.679722999999996,-71.30068,978-735-4479,4778.919999999997,37
040a0487-3bd7-3dcf-bb33-7f11abff16d4,NEPONSET VALLEY ORAL AND MAXILLOFACIAL SURGERY ASSOCIATES  PC.,20 EASTBROOK RD,DEDHAM,MA,02026-2088,42.246871999999996,-71.179462,781-326-8080,12528.51999999999,97
a40c8ae2-043f-3ac3-8da0-dc75b6e7900b,PCP62693,1180 BEACON ST,BROOKLINE,MA,02446-3806,42.323853,-71.142003,617-734-0003,1937.4000000000005,15
825c9254-2ca4-335c-8abf-b33dc19e796c,PCP63533,6 BARTLETT RD,WINTHROP,MA,02152-2913,42.375541,-70.970646,617-846-3502,4908.079999999997,38
21ed1061-d809-3fa9-a1bd-bd0b1a108a41,BAY STATE EXCELLENT VISION,600 MAIN ST,MALDEN,MA,02148-3919,42.42938,-71.058706,781-321-6463,8137.079999999994,63
b132d5f0-60e5-3869-b090-7595daaf1f80,LOWNEY MEDICAL ASSOCIATES  INC,1234 HYDE PARK AVE,HYDE PARK,MA,02136-2819,42.33196,-71.020173,617-364-2420,4262.279999999998,33
fdc50404-f4c8-3e14-848f-e111593be656,PCP64595,611 MAIN ST,WINCHESTER,MA,01890-1900,42.452752000000004,-71.144319,781-721-7311,2324.88,18
0ad49cb1-6abc-34e1-a94c-ea3050595660,PCP64655,48 SUMMER ST,WATERTOWN,MA,02472-3815,42.369451,-71.177925,617-926-5222,2066.5600000000004,16
a2295b1f-c81f-3d81-8eec-33e1ec1a2593,PCP65173,331 W GROVE ST,MIDDLEBORO,MA,02346-1498,41.894223,-70.925689,508-965-6582,13690.959999999988,106
61b47b41-0b19-3bc0-99d3-b58924900135,PCP65277,55 HERITAGE CIR,EASTHAM,MA,02642,41.841572,-69.988926,508-255-4355,9041.199999999993,70
5db9c918-9e4d-38bb-a94c-2c031fcb6fb0,CRABBE CHIROPRACTIC  INC,132 S MAIN ST,ACUSHNET,MA,02743-2772,41.718216999999996,-70.901151,508-998-2800,13045.159999999989,101
1a109958-31dc-3cbf-9b84-9c020cdef923,PCP66586,173 MOUNT AUBURN ST,WATERTOWN,MA,02472-4005,42.369451,-71.177925,617-522-4881,3616.4799999999987,28
27570e73-7b1a-3820-a78b-5fd01e997f6a,PCP66900,25 BANK ROW ST,GREENFIELD,MA,01301-3599,42.614671,-72.597063,413-329-6117,3874.7999999999984,30
3708f11e-2f93-3ff3-ab72-99d0625c1cc2,NORTH SHORE NURSE PRACTITIONER ASSOCIATES LLC,85 CONSTITUTION LN,DANVERS,MA,01923-3694,42.574174,-70.95051600000001,978-750-0755,8137.079999999994,63
04b0900a-2ae4-3360-b9a5-1b3eb2bdd8a2,PCP67456,140 N VALLEY RD,PELHAM,MA,01002-9766,42.371648,-72.412488,202-445-7271,10074.479999999992,78
6fadab74-5f38-3f14-ad60-9617dab64c08,PCP67478,63 PLEASANT ST,WATERTOWN,MA,02472-2386,42.369451,-71.177925,617-591-9200,7362.119999999994,57
4603b6f0-4716-3e92-a154-4028ed5cfef4,PCP67588,201 PARK AVE,WEST SPRINGFIELD,MA,01089-3366,42.125451,-72.649734,413-781-3307,4520.599999999998,35
c1414e2c-48df-3428-92a4-ac36114a2a45,ORTHOPEDIC AND SPORTS PHYSICAL THERAPY OF CAPE COD LLC,160 ROUTE 137,EAST HARWICH,MA,02645-1316,41.708597,-70.031856,774-237-0832,6845.479999999995,53
9be53aec-ec1e-3681-bdc9-6fe0c25ec904,PCP67787,747 MAIN ST,CONCORD,MA,01742-3326,42.462911,-71.364496,978-369-7070,4003.959999999998,31
409de2a4-a226-3785-a15f-4d57ea4e91b6,LEOMINSTER OPTOMETRIC ASSOCIATES  INC.,23 MILL ST,LEOMINSTER,MA,01453-3202,42.520876,-71.770611,978-537-5546,2324.88,18
6cd92968-eb86-3d27-b3cf-05a3987d2cba,PCP67912,1213 MAIN ST,HOLDEN,MA,01520-1017,42.355801,-71.862574,508-864-5626,12657.67999999999,98
3956291a-3345-394a-9588-53b6aa6def35,PCP68037,1093 BEACON ST,BROOKLINE,MA,02446-5623,42.323853,-71.142003,617-739-2235,1937.4000000000005,15
752b51ac-7cce-3e27-82ab-3e67a2e21b6b,PCP68488,140 PARK ST,ATTLEBORO,MA,02703-8048,41.931653000000004,-71.294503,508-226-8070,5812.199999999996,45
ec4b7d26-c955-38fd-91e3-5fdc08483859,FOOT HEALTH CENTER OF MERRIMACK VALLEY PC,1565 MAIN ST,TEWKSBURY,MA,01876-4766,42.612088,-71.227845,978-640-1010,9945.319999999992,77
58fe1815-1e8a-38ed-a91a-17d4ef18c8d8,PCP68975,259 MAIN ST,ASHLAND,MA,01721-2115,42.257754999999996,-71.473526,508-881-4368,7620.439999999994,59
78d068ff-b4c1-3133-926f-eb0f31a0b874,PCP69463,19 MUZZEY ST,LEXINGTON,MA,02421-5211,42.445221999999994,-71.23001500000001,781-862-8211,8912.039999999994,69
53d1f084-05d5-3817-aa74-0310984f43f4,PCP69644,440 E CENTRAL ST,FRANKLIN,MA,02038-1374,42.084858,-71.41057099999998,508-528-6232,4391.439999999998,34
44c1c73e-6681-30ab-8ee3-2a530ea60316,PCP69760,256 N PLEASANT ST,AMHERST,MA,01002-1729,42.363534,-72.50729100000001,413-336-4757,5037.239999999997,39
f473c8bf-89d0-37ca-9808-aa621f91bc97,PCP71309,43 ALBANY RD,WEST STOCKBRIDGE,MA,01266-9236,42.312354,-73.388044,413-496-0701,7491.279999999994,58
2208e9a4-b4a1-301d-acfb-a9e8ce6d4d13,HARDY PHYSICAL THERAPY REHABILITATION SERVICES INC,205 WASHINGTON ST,HUDSON,MA,01749-2782,42.389071,-71.545864,978-562-3114,3874.7999999999984,30
8cd3f2d3-de14-32c6-8ca6-3c92915bc860,PCP71855,270 BENTON DR,EAST LONGMEADOW,MA,01028-3119,42.062378,-72.498111,413-250-1304,7878.759999999994,61
aca3d40c-7504-3a35-91f6-082e42751c52,PCP71937,108 WOODSIDE DR,LONGMEADOW,MA,01106-2042,42.047565000000006,-72.57113000000001,413-537-1957,4262.279999999998,33
f7d3a509-bca2-3b93-80b7-97ca6778a089,WEST BROOKFIELD FAMILY PRACTICE,46 N MAIN ST,W BROOKFIELD,MA,01585-1044,42.24188,-72.146863,508-867-8977,11624.39999999999,90
363e8d5d-0430-3d82-b469-508677d077fa,PCP72155,278 ELM ST,SOMERVILLE,MA,02144-2919,42.390445,-71.101033,617-718-4268,3487.319999999999,27
cf0eb972-3a09-332c-9f6d-37c79e6c9678,PCP72164,145 BARNSTABLE RD,HYANNIS,MA,02601-2901,41.647227,-70.249978,508-735-0724,1679.0800000000004,13
9e28776c-2cd0-3f91-a942-e0a6974c9f0e,PCP72332,166 VILLAGE ST,MILLIS,MA,02054-1730,42.173103000000005,-71.36375600000001,508-376-8104,6457.999999999995,50
c795bf75-0bfa-3273-9222-6aa97290359a,PCP72347,736 CAMBRIDGE ST,BRIGHTON,MA,02135-2997,42.33196,-71.020173,617-783-3995,6328.839999999996,49
339494da-50bb-32cf-91c0-368d37815129,PCP72644,270 BENTON DR,EAST LONGMEADOW,MA,01028-3119,42.062378,-72.498111,860-416-0715,2970.6799999999994,23
c3824d8c-8e94-3f97-8fc8-31337215f727,PCP72648,1269 BEACON ST,BROOKLINE,MA,02446-5248,42.323853,-71.142003,617-739-2518,5424.719999999997,42
c08f0bbe-b345-3a17-8b7a-cdfc9fcef2a4,PCP72992,233 AYER RD,HARVARD,MA,01451-1131,42.504256,-71.588513,978-772-7225,6070.519999999996,47
05b5b9d6-c55a-3929-96d2-56a6dac566f4,PCP73166,5 N MAIN ST,SHARON,MA,02067-1240,42.108463,-71.185182,781-784-8284,9299.519999999993,72
f2093e37-54f4-3205-9417-095f5764c7b0,NEW PASSAGES PC,573 MAIN ST,WINCHESTER,MA,01890-2900,42.452752000000004,-71.144319,781-729-4010,5037.239999999997,39
76391307-ae0c-3a39-b8e5-416c63a833a1,ORCHARD MEDICAL ASSOCIATES LLC,835 WORCESTER ST,INDIAN ORCHARD,MA,01151-1000,42.115454,-72.539978,413-439-0609,3228.999999999999,25
381c9e5b-5f19-3f28-be8a-a0bc97bca3e6,PCP74651,124 HARVARD ST,BROOKLINE,MA,02446-6478,42.323853,-71.142003,617-448-9311,7878.759999999994,61
901b8ebe-f338-3aa4-8cce-5fe855e466c2,PCP74870,1200 CONVERSE ST,LONGMEADOW,MA,01106-1760,42.047565000000006,-72.57113000000001,413-567-6860,7491.279999999994,58
395fac80-d8f3-3ffd-b424-44e8efa9257d,FAMILY EYE CARE  INC.,177 MAIN ST,SPENCER,MA,01562-1711,42.247211,-71.991867,508-885-2219,8007.919999999994,62
e95b06ff-595e-3c87-b010-fef72ed3e357,PCP75555,77 WINSOR ST,LUDLOW,MA,01056-3470,42.183577,-72.457812,,8782.879999999994,68
b1f4c828-cecf-3ab5-a413-24b10b4bffc5,PCP76324,518 CHESTNUT ST,LYNN,MA,01904-2717,42.474862,-70.96218499999999,781-598-1121,11236.919999999991,87
6aec8f74-601a-33f4-bad8-ddaf92be0fd9,PCP77505,40 WRIGHT ST,PALMER,MA,01069-1138,42.187794,-72.30846899999997,413-531-8204,6845.479999999995,53
bd51dda6-36ae-3894-b334-aa5ce9b057c8,WOMEN'S HEALTH OF CENTRAL MA. PC,325 THOMPSON RD,WEBSTER,MA,01570-1504,42.047075,-71.845805,508-755-4851,4778.919999999997,37
25aa4b67-e34a-350b-aa84-1e31388dcabb,ASSOCIATES OF SOUTH SHORE DERMATOLOGY LLC,199 REEDSDALE RD,MILTON,MA,02186-3926,42.241557,-71.082432,617-696-5300,10203.639999999992,79
2dc7a6b2-bee6-3ae6-b3fe-4117382d73ee,PCP78624,56 MAIN ST,ASHBURNHAM,MA,01430-1242,42.648697,-71.919896,978-790-5789,7232.959999999995,56
2fffd695-0ea1-3e43-a3aa-ad31dfa2009e,PCP78682,275 SANDWICH ST (BETH SRAEL DEACONESS,PLYMOUTH,MA,02360-2183,41.897892,-70.62403,508-380-4653,11753.55999999999,91
8ac5197c-8c0a-35e3-9393-cf4a10ce66cd,PCP79106,17 CHURCH ST,HANOVER,MA,02339-2315,42.122956,-70.85631,781-826-0011,3874.7999999999984,30
943b5d2a-5ed8-3cf7-bd80-656578aa1544,BOSTON SPORTS MEDICINE INC,45 TIOGA WAY,MARBLEHEAD,MA,01945-1576,42.495629,-70.83582,781-990-1978,6845.479999999995,53
205a76ac-6625-3d50-bfd3-b472ecd0e573,PCP79535,1 HOSPITAL DR,LOWELL,MA,01852-1311,42.63898,-71.321141,978-458-1411,12528.51999999999,97
fb28cf4c-955b-32c7-906e-4b9ad6f5678a,LC HOLBROOK  INC.,169 N FRANKLIN ST,HOLBROOK,MA,02343-1111,42.140346,-70.997861,781-767-5200,9557.839999999993,74
b7367199-f783-3a8d-8227-f38a2ec18d06,PCP80689,19 WHEELOCK ST,SHREWSBURY,MA,01545-1834,42.284766999999995,-71.714228,508-845-6510,1291.6000000000001,10
207fb60f-2e5b-3656-bed2-d5bb48d37e41,PCP81046,45 STERLING ST,WEST BOYLSTON,MA,01583-1268,42.369417,-71.785036,508-754-6444,22215.51999999998,172
3ae19a8a-e2c4-3d17-abca-63c5cb11c1fb,PCP81330,838 R WASHINGTON ST,HOLLISTON,MA,01746-3600,42.195951,-71.45343000000001,508-335-4165,4133.119999999998,32
763f8960-1c05-374d-b57a-207f3a635099,PCP81938,146 CHURCH ST,PEMBROKE,MA,02359-1950,42.067803999999995,-70.805713,508-991-8200,8137.079999999994,63
344d7b4a-22aa-30ef-86ec-28f644111304,PCP82030,339 WASHINGTON ST,DEDHAM,MA,02026-1870,42.246871999999996,-71.179462,781-254-6265,8524.559999999994,66
29437dd4-1165-3098-a113-d55d1150ecea,PCP82077,287 WASHINGTON ST,S ATTLEBORO,MA,02703-5524,41.931653,-71.294503,508-399-6036,10461.959999999992,81
d34b3f81-afc7-3f27-a255-112254ce2075,PCP82231,165 CHESTNUT ST,BROOKLINE,MA,02445-7573,42.323853,-71.142003,617-731-5800,2712.3599999999997,21
51683799-aeac-3bff-8309-a448a5116e29,PCP82292,22 SPEAR ST,QUINCY,MA,02169-4514,42.261006,-71.008988,617-472-54282,10074.479999999992,78
0d0c645a-8eaf-3d6b-9992-161cc7847a14,PCP82378,311 SERVICE RD,E SANDWICH,MA,02537-1370,41.734214,-70.430683,508-833-4000,9041.199999999993,70
0507f525-c041-34d0-b731-f39f2b7239c0,PCP83022,32 E NORTHFIELD RD,NORTHFIELD,MA,01360-9668,42.677091,-72.453876,413-773-0009,6974.639999999995,54
3b5067a8-36ad-367c-b73e-2b6220a5f290,PCP83090,4 TANNERY BROOK ROW,SOMERVILLE,MA,02144-2758,42.390445,-71.101033,617-726-1736,3099.8399999999992,24
8e3e1d8e-2868-377c-9c21-f75be76a424c,WALTHAM BEHAVIORAL HEALTH LLC,210 BEAR HILL RD,WALTHAM,MA,02451-1025,42.388921,-71.24226800000001,781-966-0070,5166.399999999997,40
3c009a42-ce07-3859-84f6-b909e51cf0d4,VISION SOURCE OF AMHERST AND GREENFIELD,22 UNIVERSITY DR,AMHERST,MA,01002-2243,42.363534,-72.50729100000001,413-549-9400,3745.6399999999985,29
7136f05d-6f14-3fed-b3c5-a5cf2a7ab12d,PCP84676,311 MAIN ST,WILLIAMSTOWN,MA,01267-2610,42.695743,-73.22211800000001,413-320-3210,3099.8399999999992,24
7f6341b2-3ab4-37ae-b833-afe966d59f0b,LEADER EYE ASSOCIATES INC,319 NEWBURYPORT TPKE,ROWLEY,MA,01969-1754,42.721495000000004,-70.886637,978-948-2293,4908.079999999997,38
788271b2-4ace-3d36-8112-b7c8cfbdd3fd,PCP85294,12 ARROW ST,CAMBRIDGE,MA,02138-5105,42.376043,-71.11868,,4262.279999999998,33
2ef56205-01df-3799-bc11-730c09e28b4d,PCP85389,126 COMMONWEALTH AVE,DEDHAM,MA,02026-1441,42.246871999999996,-71.179462,617-522-1919,5295.559999999997,41
880106eb-a35a-394b-9683-d0debe2eeb12,GREENDALE PHYSICAL THERAPY LLC,280 BOSTON TPKE,SHREWSBURY,MA,01545-2640,42.284766999999995,-71.714228,508-753-7780,4391.439999999998,34
d552d342-c4f6-3da1-ad80-673bf27c58ba,NEW ENGLAND HOSPITALISTS  PC,390 MAIN ST,WORCESTER,MA,01608-2581,42.269478,-71.807783,508-753-4151,7620.439999999994,59
51052d64-8a89-37f8-9c7c-975ecfbe3ea8,PCP86790,1467 MAIN ST,ATHOL,MA,01331-2652,42.575924,-72.229618,,4908.079999999997,38
56090ab7-1f97-37ff-a434-194f9c6e5510,PCP87052,1540 BRIDGE ST,DRACUT,MA,01826-2611,42.679722999999996,-71.30068,,3228.999999999999,25
5f240798-6507-364f-a931-042b3b6bc8a8,DERMATOLOGY ASSOCIATES PC,440 E CENTRAL ST,FRANKLIN,MA,02038-1374,42.084858,-71.41057099999998,781-762-5858,9428.679999999993,73
e535d385-29cf-3a69-bcd4-bc73f99e58c8,ORTHOPEDIC AND SPORTS PHYSICAL THERAPY  LLP,62 WALNUT ST,WELLESLEY,MA,02481-2113,42.305932,-71.282917,781-235-5275,2454.04,19
e6df9359-9976-31de-987b-c110e24410c8,MCNALLY BROTHERS,75 VAN DEENE AVE,WEST SPRINGFIELD,MA,01089-3216,42.125451,-72.649734,413-788-9621,6199.679999999996,48
56bf7e7c-5ef4-3c8e-92b6-e3b66c999be7,BROCKTON HOSPITAL  INC.,680 CENTRE ST,BROCKTON,MA,02302-3395,42.082543,-71.024638,508-941-7000,5295.559999999997,41
3a24d987-a062-3e25-bc8e-d674bb3b467e,PCP88410,71 POND ST,SHARON,MA,02067-2042,42.108463,-71.185182,,5295.559999999997,41
e31728d2-e211-354d-9bb6-798887761da5,PCP88738,9 MILL AND MAIN PL,MAYNARD,MA,01754-2651,42.425955,-71.45625600000001,,5812.199999999996,45
d32d8049-07fd-3692-9c16-1915fd26afad,PCP89345,990 PARADISE RD,SWAMPSCOTT,MA,01907-1395,42.468059000000004,-70.89126,,11236.919999999991,87
b50ae63c-0849-303a-a2b7-4c780066dded,PCP89596,105 E MAIN ST,MILFORD,MA,01757-2709,42.158691999999995,-71.521419,,4262.279999999998,33
424944df-a5c2-3500-8c23-fc9ec6105ace,CARROLL PHYSICAL THERAPY,735 ATTUCKS LN,HYANNIS,MA,02601-1867,41.647227,-70.249978,508-778-5000,3745.6399999999985,29
14ef3da1-8343-3a2e-901e-9adc753b81b7,PCP90102,334 WALNUT ST EXT,AGAWAM,MA,01001,42.064731,-72.653477,,5037.239999999997,39
ea04cb4f-a20f-3ae3-a938-79a5ffb2cc86,PCP90191,142 SHIRLEY AVE,REVERE,MA,02151-3211,42.421005,-70.99036,,6199.679999999996,48
cc6052ce-f62f-373b-a41b-3391c6380d42,PCP90763,290 BROADWAY,RAYNHAM,MA,02767-5512,41.930477,-71.046214,,9428.679999999993,73
f716172c-e9af-3a5a-8d69-d55d1915ae6d,PCP92553,271 MAIN ST,STONEHAM,MA,02180-3580,42.474208000000004,-71.097665,,3228.999999999999,25
dea46466-2464-3d0a-ac31-04af67250484,PCP92883,340 MAPLE ST,MARLBOROUGH,MA,01752-3200,42.349616999999995,-71.547214,,8912.039999999994,69
0b59187e-7835-3ccf-ba76-f3ced345408b,PCP93417,315 MAIN ST,NORTH READING,MA,01864-1326,42.578222,-71.084398,,6587.159999999995,51
561e4677-fbe8-3798-88c6-f2dec666099f,PCP93699,23 D CAMBRIDGE ST,BURLINGTON,MA,01803-4730,42.503227,-71.201713,,10074.479999999992,78
66745ade-e31f-39c0-8f61-f93f8419465b,MARK ROMANOWSKY MD PC,33 BARTLETT ST,LOWELL,MA,01852-1317,42.63898,-71.321141,978-458-1293,4908.079999999997,38
cb8410c4-c93e-3067-86b3-fa5ead300465,AFFILIATES IN FOOT CARE  PC,100 UNICORN PARK DR,WOBURN,MA,01801-3339,42.488769,-71.154438,781-979-0919,8524.559999999994,66
b29de178-1c55-328c-b78b-6e63c1cba933,PCP94824,1180 BEACON ST,BROOKLINE,MA,02446-3806,42.323853,-71.142003,,9686.999999999993,75
4b7031f2-b29d-3e53-91c7-9efea466df77,PCP95329,110 HARTWELL AVE,LEXINGTON,MA,02421-3118,42.445221999999994,-71.23001500000001,,9041.199999999993,70
f9d686d4-0133-30a3-ab72-80c9e93921f4,PCP95496,169 N FRANKLIN ST,HOLBROOK,MA,02343-1111,42.140346,-70.997861,,4003.959999999998,31
c0dab828-5db5-3e9f-8529-cf7dd1d1ed33,PCP95658,99 4TH ST,CHELSEA,MA,02150-2326,42.396824,-71.031348,,7749.599999999994,60
5a7ed706-aeb7-30ff-a1ad-52b5d680cd15,PCP96193,1101 BEACON ST,BROOKLINE,MA,02446-5587,42.323853,-71.142003,,5295.559999999997,41
a0c4098e-a8bd-3eee-a82a-3e72b621ff70,PCP96205,186 BURRILL ST,SWAMPSCOTT,MA,01907-1835,42.468059000000004,-70.89126,,7103.799999999995,55
54725dbc-84db-35dc-8280-104b587d6240,PCP97310,300 MOUNT AUBURN ST,CAMBRIDGE,MA,02138-5665,42.376043,-71.11868,,3874.7999999999984,30
35c90929-f5e2-3698-a240-27171cb11e07,PCP97601,10 HOSPITAL DR,HOLYOKE,MA,01040-6603,42.211656,-72.642448,,3745.6399999999985,29
0c40e705-a616-3f11-9b3a-46892697b1fd,PCP98124,215 HAMILTON ST,LEOMINSTER,MA,01453-2309,42.520876,-71.770611,978-537-2100,3099.8399999999992,24
9265b9e0-9d1d-3b31-ba11-432886a3f892,PCP100846,555 MAIN ST,SHREWSBURY,MA,01545-2932,42.284766999999995,-71.714228,,3228.999999999999,25
aad90de1-23de-3239-bbf3-a22a9842cc31,FAMILY AND COMMUNITY RESOURCES INC,18 NEWTON ST,BROCKTON,MA,02301-5115,42.082543,-71.024638,508-583-6498,9170.359999999993,71
24859bd7-0620-374b-bc28-880516462850,PCP101658,473 MAIN ST,FISKDALE,MA,01518-1293,42.124762,-72.110888,,4391.439999999998,34
a9887a71-72ce-35ee-bcdd-9999f9bf9adc,SOUTHCOAST CARDIOLOGY LLC,275 ALLEN ST,NEW BEDFORD,MA,02740-3373,41.661303000000004,-70.937913,774-992-7499,5295.559999999997,41
b5e26f16-af8e-33d5-b221-e7216ab7abc5,PCP102180,62 DERBY ST,HINGHAM,MA,02043-3718,42.224319,-70.880673,,9686.999999999993,75
32d25335-b5e3-3e02-8d9f-58f46e151cf4,PCP102280,17 MAIN ST,HUDSON,MA,01749-2108,42.389071,-71.545864,,9428.679999999993,73
5181acd0-4c26-3172-9068-138966873eb6,PCP102671,22 W ST,MILLBURY,MA,01527-2622,42.192246000000004,-71.777649,,7103.799999999995,55
b503f336-fecb-3359-9b5b-ab536ea685a2,PCP103362,333 N AVE,WAKEFIELD,MA,01880-2300,42.50436,-71.064061,,5295.559999999997,41
211513af-05dd-340e-a7d8-79cb8c958edb,PCP104079,95 TREMONT ST,DUXBURY,MA,02332-4732,42.044307,-70.70604499999999,,5166.399999999997,40
49576e6f-f875-3d69-89a7-1bd016f0b33a,PCP104516,171 MAIN ST,ASHLAND,MA,01721-1185,42.257754999999996,-71.473526,508-881-7766,4778.919999999997,37
1832b70f-c3fa-34c2-be72-cda87ae32067,PCP104708,546 SPRINGFIELD ST,FEEDING HILLS,MA,01030-2133,42.064731,-72.653477,,3616.4799999999987,28
a700dc16-db10-3e81-9364-e51e488a9e60,TPB ENTERPRISES  INC,221 QUINCY AVE B,QUINCY,MA,02169-6754,42.261006,-71.008988,,3745.6399999999985,29
cc1eb18f-5d39-3ac9-b326-9bb0e349d7dc,PCP104937,1029 PLEASANT ST,BRIDGEWATER,MA,02324-2472,41.972376000000004,-70.978773,,8007.919999999994,62
9bd38783-68f3-30de-997c-444715e0ad0b,HIGHLAND SURGICAL ASSOCIATES LLC,2100 DORCHESTER AVE,DORCHESTER,MA,02124-5615,42.33196,-71.020173,617-696-0660,12011.87999999999,93
2a4518d8-7014-3404-b2e9-1c30c76b6a12,OUTBACK PHYSICAL THERAPY  INC.,149 A HIGHLAND AVE,SOMERVILLE,MA,02143-1650,42.390445,-71.101033,617-718-9300,8395.399999999994,65
7048f223-5fe7-3864-a96e-b9acc08cc8c7,PCP106281,141 BRIDGE RD,SALISBURY,MA,01952-2400,42.844794,-70.841499,,3358.159999999999,26
1a1293a3-0151-3bea-96fb-268effe14d7f,PCP106696,24 LYMAN ST,WESTBOROUGH,MA,01581-1484,42.268426,-71.613309,,8524.559999999994,66
eb39dca7-a51b-3f72-a276-89fb9f80002e,PCP106710,271 MAIN ST,EAST DOUGLAS,MA,01516-2170,42.080784,-71.715992,,15111.719999999987,117
abd13c9a-fc39-3fac-9de2-9cd307fe49b7,PCP107325,57 PROSPECT ST,NANTUCKET,MA,02554-2799,41.293416,-70.10216899999999,,6328.839999999996,49
99157068-4f0d-3906-8723-d8b7fda349f5,PCP107381,1533 LAKEVIEW AVE,DRACUT,MA,01826-3324,42.679722999999996,-71.30068,,3874.7999999999984,30
9de56a33-a10b-32e6-986c-b9576eb3e933,BAY RADIOLOGY ASSOCIATES  INC.,273 TEATICKET HWY,TEATICKET,MA,02536-5638,41.562579,-70.587349,508-495-8000,3487.319999999999,27
fa2f94bc-820f-327b-839f-acec552610f3,PCP108796,846 WALNUT ST,NEWTON,MA,02459-1756,42.331876,-71.208402,,4262.279999999998,33
b8cf2166-ef7d-3827-854f-03107a106964,PCP109158,225 ROCKLAND ST,NEW BEDFORD,MA,02740-3136,41.661303000000004,-70.937913,,3616.4799999999987,28
c4e4a284-052a-3c46-8ec8-72b88637bb74,PCP109289,28 MARKET ST,SWANSEA,MA,02777-3941,41.758163,-71.21418100000001,,5295.559999999997,41
641c80f2-5f38-3fe8-ae8d-1d96687c699a,REHAB RESOLUTIONS INC,627 COLLEGE HWY,SOUTHWICK,MA,01077-9829,42.05257,-72.777353,413-831-6167,4003.959999999998,31
1d9793e4-b135-33d8-b90e-521cedb608cc,PCP110579,611 LEOMINSTER RD,LUNENBURG,MA,01462-2013,42.582607,-71.720464,,7620.439999999994,59
cc7f65a8-6edd-3dd5-8999-a3f06a5f21b5,PCP110821,200 N MAIN ST,EAST LONGMEADOW,MA,01028-2354,42.062378,-72.498111,,7620.439999999994,59
b5d63890-b84e-3528-bd30-d7b4913589a1,SALEM PEABODY ORAL SURGERY,6 ESSEX CTR DR,PEABODY,MA,01960-2905,42.534279,-70.969782,978-531-1450,9428.679999999993,73
071e3dcb-e88b-30f6-b32e-439defbd34b5,PCP110950,990 PLEASANT ST,BROCKTON,MA,02301-3063,42.082543,-71.024638,,4649.7599999999975,36
d496ec27-3707-342f-b8d0-562687e9e740,PCP111038,4 BARLOWS LANDING RD,POCASSET,MA,02559-1980,41.688804,-70.639267,,11236.919999999991,87
5465c0e6-2534-361a-9e74-5dcbdeca2d2a,PCP111090,1 WIDGER RD,MARBLEHEAD,MA,01945-2100,42.495629,-70.83582,,3616.4799999999987,28
bcb26f1b-a37d-37dd-8819-c5dd6b6d9f74,PCP111254,22 PLEASANT ST,WEST BRIDGEWATER,MA,02379-1506,42.021617,-71.026717,,14078.439999999988,109
3bd17675-986e-382c-a582-8fbd32de1064,PCP111516,249 CENTRAL ST,LOWELL,MA,01852-1929,42.63898,-71.321141,,2841.5199999999995,22
c911e9eb-77b0-38c2-aaad-dace94a98dad,PCP112195,1223 BEACON ST,BROOKLINE,MA,02446-5332,42.323853,-71.142003,,645.8,5
24452cc0-dc93-34bd-9a5f-4f1a30bad496,PCP112570,525 MASSACHUSETTS AVE,ACTON,MA,01720-2959,42.483953,-71.43849499999999,,3487.319999999999,27
aeb088d2-fff9-31fa-a081-aef2d585e089,PCP113549,767 MAIN RD,WESTPORT,MA,02790-4398,41.579794,-71.081822,508-636-6331,20536.43999999998,159
d9242200-7588-3df0-8ff0-61a45b07c487,PCP114043,32 NYE AVE,ACUSHNET,MA,02743-2750,41.718216999999996,-70.901151,,9686.999999999993,75
9f599d0e-3035-3db9-9499-4283ae8eaf70,PCP114087,201 HIGHLAND ST,CLINTON,MA,01510-1037,42.411887,-71.690005,,9041.199999999993,70
5445cc47-4b0f-37a6-9223-418b20a0693f,PCP115864,16 WINTER ST,SOUTHBOROUGH,MA,01745-1029,42.299625,-71.52842700000001,,16015.839999999986,124
5e3a1526-3f35-3aa8-847a-7bbdbad55da5,PCP116102,57 MAIN ST,STURBRIDGE,MA,01566-1283,42.10481,-72.08774,,6457.999999999995,50
ac49e33e-3594-3285-8b45-a0e98c3dd883,DYNAMIC EYE CARE  INC.,101 INDEPENDENCE WAY,KINGSTON,MA,02364-3048,41.987196000000004,-70.74194200000001,781-585-6883,4908.079999999997,38
c2c9a655-efd6-36f5-af9c-3dd46c1f7a03,PCP116731,679 PLEASANT ST,PAXTON,MA,01612-1380,42.311693,-71.940282,,14207.599999999988,110
684cad81-eace-39f3-b257-01556300c06f,PCP117098,345 NEPONSET ST,CANTON,MA,02021-1940,42.175737,-71.125385,,4778.919999999997,37
2a6ebae0-a376-34f0-9c12-e41d29212ad7,PCP117169,101 COURT ST,PLYMOUTH,MA,02360-8718,41.897892,-70.62403,,5812.199999999996,45
df307868-cb89-31d5-8894-1ddbc7f7fbda,PCP118039,118 GREAT RD,STOW,MA,01775-1190,42.429688,-71.512514,,22086.35999999998,171
d698d921-afb1-3c4f-845e-a1710187c4fc,MEDICAL ASSOCIATES OF GREATER BOSTON,307 W CENTRAL ST,NATICK,MA,01760-3719,42.284822,-71.348811,508-820-8383,1033.28,8
f33124ba-95bf-378a-858b-ecbf737c1334,PCP118611,126 PRESIDENT AVE,FALL RIVER,MA,02720-2649,41.725351,-71.094162,,6328.839999999996,49
fe834711-876c-33c8-b780-8391132691db,PCP118923,95 MAIN ST,READING,MA,01867-3965,42.535183,-71.105423,,2712.3599999999997,21
9476b709-a6e3-3829-8793-489c32692f19,PCP119294,300 TRADECENTER,WOBURN,MA,01801-7420,42.488769,-71.154438,,2454.04,19
a88ffeae-5f8c-31a5-8940-721a44591084,PCP119659,11 MAYO DR,HOLDEN,MA,01520-1539,42.355801,-71.862574,508-829-5599,13045.159999999989,101
4fef7da2-d425-37a0-a7fc-4ed10f6afc68,BROADWAY PHYSICAL THERAPY  INC.,185 SQUIRE RD,REVERE,MA,02151-1234,42.421005,-70.99036,781-284-0559,5683.039999999996,44
0269fb69-594d-3cb3-a711-3c391e96f434,PCP121072,155 MILLENIUM CIR,LAKEVILLE,MA,02347-1248,41.834412,-70.957166,,8653.719999999994,67
0f905f08-f2ac-3fae-b1ed-37e0130abd94,PCP121627,255 PARK AVE,WORCESTER,MA,01609-1985,42.269478,-71.807783,,3874.7999999999984,30
e4ce327e-73b3-30c2-92b2-438a69bc39e5,PCP122118,919 MAIN ST,WILBRAHAM,MA,01095-2647,42.126883,-72.430952,,20019.79999999998,155
a1331f5d-b18b-318a-b376-81d14db5983f,PCP122892,76 MAIN ST,PEPPERELL,MA,01463-1561,42.670643,-71.602858,978-433-0517,4003.959999999998,31
c4aa0990-a6d8-3d5f-a6d9-f640761ec82d,PCP123085,200 WALNUT ST,SAUGUS,MA,01906-1175,42.468432,-71.01394599999999,,9041.199999999993,70
12f5595c-78d8-314b-8b02-7bef6558e8ee,PCP123143,288 LITTLETON RD,WESTFORD,MA,01886-3527,42.585541,-71.44025,,3745.6399999999985,29
42155e5d-1678-389e-bf85-3af30a5700fa,PCP123154,512 MAIN ST,SHREWSBURY,MA,01545-6405,42.284766999999995,-71.714228,,1679.0800000000004,13
5994383c-0e58-3f7d-ab03-114a9d5b0021,NORTH SHORE PAIN MANAGEMENT  LLC,800 W CUMMINGS PARK,WOBURN,MA,01801-6587,42.488769,-71.154438,781-927-7246,7362.119999999994,57
1776755d-7040-3d15-b588-d67de0149d76,PCP124300,5 CROWLEY RD,WESTHAMPTON,MA,01027-9637,42.314078,-72.777977,,13303.479999999989,103
c9d253ca-9fe4-3255-a35a-4969dd0cbe9d,PCP124591,122 ELM ST,WORCESTER,MA,01609-1902,42.269478,-71.807783,,6587.159999999995,51
299b8267-9b1b-37d7-b154-e448dc3a7945,PCP125508,80 SUMNER AVE,SPRINGFIELD,MA,01108-2315,42.115454,-72.539978,,8653.719999999994,67
f3079beb-eff8-3817-a339-889120335756,PCP127421,354 W BOYLSTON ST,WEST BOYLSTON,MA,01583-2373,42.369417,-71.785036,,4908.079999999997,38
7828e5ea-1d0c-3cb2-a168-cbca730c12ee,A PLUS CHIROPRACTIC MANAGEMENT INC,2360 CRANBERRY HWY,WEST WAREHAM,MA,02576-1208,41.791736,-70.75787199999999,508-273-0190,12915.999999999989,100
3fa14d94-f5fe-31e2-8d63-df026c7b6a45,PCP128082,480 WASHINGTON ST,BRIGHTON,MA,02135-2655,42.33196,-71.020173,,2195.7200000000003,17
e9e2998f-97d3-3f88-8ee8-82660c5ddfce,PCP128586,2360 CRANBERRY HWY,W WAREHAM,MA,02576-1208,41.748854,-70.74053599999998,,10074.479999999992,78
0adbfc92-86b4-351b-9c0b-de45963055de,PCP130586,360 BROCKTON AVE,ABINGTON,MA,02351-2186,42.119966999999995,-70.957211,,7749.599999999994,60
af53dd55-d014-3c53-a196-7821b6dc2a3f,PCP130909,92 FAUNCE CORNER RD,DARTMOUTH,MA,02747-1262,41.56651,-70.958229,,1291.6000000000001,10
62b534eb-cbbc-3c46-9f95-ef4c35a6b359,PCP130952,2 OAK ST,MASHPEE,MA,02649-6410,41.617622999999995,-70.492713,,8782.879999999994,68
1c33591a-c3e1-3895-862f-84b61983199c,PCP131358,539 LINCOLN AVE,SAUGUS,MA,01906-3892,42.468432,-71.01394599999999,,1679.0800000000004,13
934f4ea8-157d-3c1e-806b-7f8a9ec92a84,PCP133048,470 GRANBY RD,SOUTH HADLEY,MA,01075-3218,42.256208,-72.58103,,5812.199999999996,45
81d97677-f9f6-30ec-b5e9-efba1615787b,PCP133179,180 STATE RD,SAGAMORE BEACH,MA,02562-2362,41.782888,-70.5321,,10849.439999999991,84
04c749da-634e-3e9e-9806-a5052635370e,PCP133287,1592 GAR HWY,SOMERSET,MA,02726-1210,41.738479,-71.165065,,7878.759999999994,61
d678d69e-84bd-340f-aa3e-88629727c34a,PCP133930,444 HUMPHREY ST,SWAMPSCOTT,MA,01907-2557,42.468059000000004,-70.89126,,7749.599999999994,60
bdea7937-8a09-3972-816d-98dbc1b47c0b,MCNALLY BROTHERS,1066 GRANBY RD,CHICOPEE,MA,01020-1539,42.175668,-72.572257,413-534-4224,3874.7999999999984,30
586d90ae-7754-30c2-996b-9e62e75227d3,PCP136067,163 N MAIN ST,NORTH BROOKFIELD,MA,01535-1400,42.267564,-72.06687600000001,,3358.159999999999,26
5f5140f3-df3b-3af2-bc42-a671fc6a5a28,PCP137171,17 N AVE,ROCKLAND,MA,02370-2123,42.129251000000004,-70.908736,,8912.039999999994,69
ed0add35-4403-3e92-b702-89faaf2922bb,PCP138710,1017 TURNPIKE ST,CANTON,MA,02021-2847,42.175737,-71.125385,,4133.119999999998,32
6cea8def-fb8c-3d56-9471-94669dbfb3e2,PCP139015,772 COUNTY ST,TAUNTON,MA,02780-6947,41.903324,-71.094987,,8007.919999999994,62
641e6a7f-cb71-38d0-b627-7f58dd21e7cb,NEW ENGLAND ORTHOPEDIC SPECIALISTS LLC,4 CENTENNIAL DR,PEABODY,MA,01960-7930,42.534279,-70.969782,978-531-0800,8007.919999999994,62
c47a0e8d-2047-307e-b72e-ae461ed1aa42,PCP139962,174 DEAN ST,TAUNTON,MA,02780-2792,41.903324,-71.094987,,8782.879999999994,68
c1f6df80-fe5e-3a72-bdbc-7093801ab4ad,PCP140591,21 MAIN ST,NORTH READING,MA,01864-2286,42.578222,-71.084398,,5295.559999999997,41
cf72ee74-07e6-3547-902c-5ac720ea41ca,PCP141017,109 B COUNTY RD,N FALMOUTH,MA,02556-2019,41.601508,-70.639317,508-563-6655,13174.319999999989,102
60015aa6-4ab9-3aff-b72c-e1bea873597e,PCP141206,1005 ELM ST,WEST SPRINGFIELD,MA,01089-1505,42.125451,-72.649734,413-736-0947,9945.319999999992,77
e77320b7-d6f9-3218-a39f-81d6e344a6af,FAMILY MEDICINE ASSOCIATES OF SOUTH ATTLEBORO  P.C.,562 WASHINGTON ST,SOUTH ATTLEBORO,MA,02703-6942,41.931653,-71.294503,508-761-5650,5812.199999999996,45
173fa89c-f765-3117-8fb4-141a54f4b96d,PCP142176,599 CANAL ST,LAWRENCE,MA,01840-1244,42.700272999999996,-71.161357,,7878.759999999994,61
f061dcc1-593a-3820-b7e5-797a00bb86e7,PCP143150,141 MAIN ST,SOUTHBRIDGE,MA,01550-2524,42.059669,-72.03404,508-764-9800,6845.479999999995,53
0be7e592-fd37-398a-8f8f-7b0d6ed751ca,PCP143934,27 WOLCOTT ST,EVERETT,MA,02149-3513,42.405938,-71.054649,,5812.199999999996,45
9e2804c2-dd28-3eeb-a5fe-c24d79469ee2,DERMCARE PHYSICIANS AND SURGEONS  LLC,27 VILLAGE SQ,CHELMSFORD,MA,01824-2712,42.597055,-71.3697,978-244-0060,3874.7999999999984,30
82f99b8f-2ecb-3210-8ae5-05b32c1b41c7,PCP144466,13 N ST,WARE,MA,01082-1082,42.275462,-72.280158,413-967-5877,3228.999999999999,25
61b5df88-742c-3ed7-aa4e-c681665bf99a,PCP144578,630 BOSTON RD,BILLERICA,MA,01821-3783,42.559673,-71.260947,,1937.4000000000005,15
060d4631-3566-3d04-9205-2827b0f87c2e,PCP144782,111 EVERETT AVE,CHELSEA,MA,02150-2380,42.396824,-71.031348,,15499.199999999986,120
d62a586f-8497-34d0-8f58-ec4dd85eb331,PCP145332,1765 CENTRE ST,WEST ROXBURY,MA,02132-1535,42.33196,-71.020173,,4003.959999999998,31
af1cd5f0-7b52-3b1b-b207-e497fca9715e,JEWISH FAMILY AND CHILDREN'S SERVICE,1430 MAIN ST,WALTHAM,MA,02451-1623,42.388921,-71.24226800000001,781-647-5327,6587.159999999995,51
ae9c5def-3186-3c7e-9474-0e2bbc76500a,PCP147534,70 UNION SQ,SOMERVILLE,MA,02143-3032,42.390445,-71.101033,,5941.359999999996,46
85a35717-da6e-3d79-91f8-b73bd935d370,PCP148552,60 WASHINGTON ST,SALEM,MA,01970-3515,42.499248,-70.898204,,7878.759999999994,61
2cfd240e-3280-34b6-96cc-daf60ad5d14f,PCP148963,21 E MAIN ST,AVON,MA,02322-1413,42.132461,-71.054013,508-586-1046,6587.159999999995,51
fcb3d1bd-3f39-3b21-a60e-cc8e59e9e99c,PCP149102,402 A HIGHLAND AVE F,SOMERVILLE,MA,02144-2511,42.390445,-71.101033,,4391.439999999998,34
ec4d78b1-5947-3274-ab29-1a733fa41970,PCP149317,45 LYMAN ST,WESTBORO,MA,01581-2657,42.267441,-71.617492,,5683.039999999996,44
42a836e3-7889-3d7c-b80c-98f1ecb1ae65,PCP149675,126 MERRIMACK ST,METHUEN,MA,01844-6109,42.742751,-71.178588,,4778.919999999997,37
e93feb1d-bcef-3d72-9b7c-47870479bdbe,PCP149771,200 CTR ST,LUDLOW,MA,01056-2772,42.183577,-72.457812,,10591.119999999992,82
463296bc-5a7c-3412-b888-eec038ac8e1b,PCP149962,1748 GRAND ARMY HWY,SOMERSET,MA,02726-1211,41.738479,-71.165065,,6587.159999999995,51
b84fd170-71a9-3989-bb5b-b0810f6f5410,PCP150237,157 CTR BRIDGE RD,LANCASTER,MA,01523-2227,42.483569,-71.675585,,4133.119999999998,32
5f6443b3-946b-3c4a-92bc-4cb0ac31b3bb,NORTHEAST ORTHOPEDIC ASSOCIATES  PC,200 PROVIDENCE HWY 200,DEDHAM,MA,02026-1881,42.246871999999996,-71.179462,781-461-4543,7491.279999999994,58
ff038275-29a5-32b0-918b-fae967a15738,PCP151160,54 HOPEDALE ST,HOPEDALE,MA,01747-1700,42.123007,-71.53140400000001,,7749.599999999994,60
addb7e46-903a-307e-8c93-211a08d567e8,PCP151844,630 BALDWINVILLE RD,BALDWINVILLE,MA,01436-1330,42.604845000000005,-72.078823,,7232.959999999995,56
205d602b-242c-36fc-b4c7-1b21da68de32,PCP152113,63 S MAIN ST,RANDOLPH,MA,02368-4820,42.178993,-71.052654,,3616.4799999999987,28
bce59305-9d4e-3e94-a306-fe10cf255b32,PCP152547,101 BARRY RD,WORCESTER,MA,01609-1275,42.269478,-71.807783,,5166.399999999997,40
935d467f-947f-3472-976e-2cb856fcfc03,PCP153225,350 PARK ST,NORTH READING,MA,01864-2162,42.578222,-71.084398,,3874.7999999999984,30
19468d2d-33f2-3dad-a5e4-96748763ae3a,PCP153799,76 COUNTY RD,MATTAPOISETT,MA,02739-1650,41.661363,-70.812024,508-496-6126,7103.799999999995,55
c988b6b5-0e79-3f8b-a3b5-103bdccf96af,PCP154942,391 BROADWAY,EVERETT,MA,02149-3471,42.405938,-71.054649,,4003.959999999998,31
4f0a1843-c819-3964-a2e9-2dab906b84bf,PCP154964,1440 GAR HWY,SOMERSET,MA,02726-1218,41.738479,-71.165065,,10720.279999999992,83
150d4bec-d11c-3014-8818-45127743725d,PCP155636,69 BAYVIEW AVE,BERKLEY,MA,02779-1924,41.838060999999996,-71.07761500000001,,29319.31999999997,227
6633c540-16fa-339d-83b7-52dd2a603684,PCP156094,500 CUMMINGS CTR,BEVERLY,MA,01915-6141,42.556659,-70.84496,,10849.439999999991,84
322815fe-2d29-3fb0-9466-f66d4dd5796d,PCP156761,321 WASHINGTON ST,WESTWOOD,MA,02090-1801,42.219645,-71.216768,,5553.8799999999965,43
5706c92d-4ff2-3c9e-a7bd-87efabbb9e1d,PCP158806,101 BROADWAY RD,DRACUT,MA,01826-4068,42.679722999999996,-71.30068,978-970-2222,3099.8399999999992,24
9ec912a1-ecfd-398d-9598-2eb62511975b,PCP158924,9 CHESTNUT ST,ARLINGTON,MA,02474-1225,42.418721999999995,-71.163912,,3874.7999999999984,30
cbd7e69e-f961-3dc4-9e8d-ac4591e8bd0a,PCP159223,1280 CENTRE ST,NEWTON,MA,02459-1552,42.331876,-71.208402,,3616.4799999999987,28
d67076df-aafc-3cec-9060-f87af7bb8c49,EVERETT FOOT CARE PC,459 BROADWAY,EVERETT,MA,02149-3614,42.405938,-71.054649,617-387-4200,3228.999999999999,25
63b76bc1-924b-37b9-b45a-9d7b445f6ec6,PCP161094,256 GREAT RD,LITTLETON,MA,01460-1916,42.535931,-71.490569,,5553.8799999999965,43
57bfcd4d-006d-3ee8-9433-be6a012e588e,PCP161549,129 MOUNT AUBURN ST,CAMBRIDGE,MA,02138-5766,42.376043,-71.11868,,14336.759999999987,111
219754e0-e530-3e9d-a496-987d1d7c8705,PCP161669,194 CENTRAL ST,SAUGUS,MA,01906-2107,42.468432,-71.01394599999999,,1937.4000000000005,15
9cb9c46d-64f4-3f51-9cbb-f16b27e8b771,PCP161804,53 SPRINGFIELD ST,CHICOPEE,MA,01013-2624,42.175668,-72.572257,,6199.679999999996,48
95fc9ceb-0603-32ef-96f5-2879bcf795d4,PCP162516,137 TEATICKET HWY,TEATICKET,MA,02536-5659,41.562579,-70.587349,,9041.199999999993,70
1ed12ac9-4624-3ab9-a5cd-2d4afa7591ab,PCP162634,195 RUSSELL ST,HADLEY,MA,01035-9515,42.356491,-72.568632,,15111.719999999987,117
b40818e2-5e81-393d-a10d-40441bb973a1,PCP164794,233 WINTHROP ST,TAUNTON,MA,02780-4428,41.903324,-71.094987,,9816.159999999993,76
0471e045-73e1-3540-a5e8-dbef0d4093b6,PCP164843,113 /2 MAIN ST,OXFORD,MA,01540-2832,42.12826,-71.8671,,5553.8799999999965,43
5cb8fe56-29b3-327b-869e-ba45660e0a72,PCP165450,763 COUNTY ST,TAUNTON,MA,02780-3733,41.903324,-71.094987,,4908.079999999997,38
101218d1-91ab-36aa-b58d-c0bc85db26e2,PCP165543,416 BOSTON POST RD,SUDBURY,MA,01776-3016,42.383367,-71.42107,,2583.2,20
18f848b4-507e-377d-90dc-250529de54f4,PCP165627,769 PLAIN ST B,MARSHFIELD,MA,02050-2146,42.115139,-70.71033100000001,,6716.319999999995,52
3c8b233a-6c05-3357-b6e0-97306efcf971,PCP167629,54 MAPLE AVE B,RUTLAND,MA,01543-1527,42.388284999999996,-71.969865,,17824.079999999984,138
75bc27b3-2841-3c4f-9069-13bed81bfa6c,PCP168395,181 STATE RD,WHATELY,MA,01093,42.430995,-72.642437,,1162.44,9
bf831193-0c51-3d98-98bf-3ddd11eb4372,PCP168778,341 STATE RD,DARTMOUTH,MA,02747-4313,41.56651,-70.958229,,4133.119999999998,32
8f0d91e5-9ebc-387d-92dc-5bfd33cd477a,PATRIOT URGENT CARE PROFESSIONALS  PC,90 MIDDLESEX TPKE,BURLINGTON,MA,01803-4938,42.503227,-71.201713,781-894-6900,4778.919999999997,37
a5279ffe-ed11-3c48-85ac-93eb2e3a37d7,GUARDIAN BROCKTON PC,907 SUMNER ST,STOUGHTON,MA,02072-3374,42.119006,-71.10365,781-344-2325,6587.159999999995,51
b6cc5a2b-26bc-32df-ba4c-622162a8a584,PCP169387,233 AYER RD,HARVARD,MA,01451-1131,42.504256,-71.588513,,5166.399999999997,40
822a6b9f-da15-3cc4-8436-ab61474f19fd,PCP169859,55 HOSPITAL DR,WINCHENDON,MA,01475-1820,42.66816,-72.055644,978-297-2311,1808.2400000000005,14
aab10ef0-26bc-3c95-a668-82bc87494cd1,ADULT AND PEDIATRIC DERMATOLOGY  P.C.,133 LITTLETON RD,WESTFORD,MA,01886-3149,42.585541,-71.44025,978-371-7010,3616.4799999999987,28
7d71f437-4a55-3eec-853a-f9e36e3a372d,ADULT AND PEDIATRIC DERMATOLOGY  P.C.,54 BAKER AVE EXT,CONCORD,MA,01742-2143,42.462911,-71.364496,978-371-7010,6974.639999999995,54
c21ec1c3-0a39-3a6f-9a58-7a9ef6674fec,PCP170543,730 MAIN ST,MILLIS,MA,02054-1611,42.173103000000005,-71.36375600000001,508-533-3500,4133.119999999998,32
2acd3148-fcd7-3092-8cac-60cafaeea43e,PCP171542,189 CHURCH ST,CARLISLE,MA,01741-1854,42.53662,-71.36183199999999,978-369-5093,2454.04,19
7809e0e7-9f73-3c75-a2e7-d82f31aab18c,CHILDREN'S FRIEND  INC.,20 CEDAR ST,WORCESTER,MA,01609-2520,42.269478,-71.807783,508-753-5425,8137.079999999994,63
f492f007-5ade-3144-8594-41fefeb19dc0,STEPHEN M DESIO MD PC,123 SUMMER ST,WORCESTER,MA,01608-1216,42.269478,-71.807783,508-363-6362,5683.039999999996,44
7638b2b1-dbae-3cf5-bd72-676b736b7c87,STREFF ASSOCIATES  LLC,132 GREAT RD,STOW,MA,01775-1189,42.429688,-71.512514,978-263-04395,8395.399999999994,65
618121e5-675e-3efc-80a2-e6aac5a65ed1,FACIAL COSMETIC AND MAXILLOFACIAL SURGERY P.C.,382 N MAIN ST,EAST LONGMEADOW,MA,01028-1830,42.062378,-72.498111,413-525-0100,10978.599999999991,85
e0ca0c69-8ba4-35e5-aa72-ea06997ed383,HILLTOWN COMMUNITY HEALTH CENTERS INC,58 OLD N RD,WORTHINGTON,MA,01098,42.397559,-72.943392,413-238-5511,7878.759999999994,61
5a8f2730-6156-364e-9bd6-49a429cf6f6b,L AND M RADIOLOGY  INC.,1 GENERAL ST,LAWRENCE,MA,01841-2961,42.700272999999996,-71.161357,978-946-8103,6328.839999999996,49
32abbd7e-d140-3002-a3d1-d2da53ac96f4,PCP174035,167 DWIGHT RD,LONGMEADOW,MA,01106-1769,42.047565000000006,-72.57113000000001,413-519-1960,3616.4799999999987,28
7596f38c-d46c-3be1-b263-c676a4f3fe5f,URGENT CARE SPECIALISTS PC,5 SHREWSBURY ST,HOLDEN,MA,01520-1960,42.355801,-71.862574,508-829-3800,4649.7599999999975,36
9ecd29f6-9a10-3d24-baac-b98f5db48e4f,ENT SPECIALISTS  INC,188 WASHINGTON ST,PLAINVILLE,MA,02762-1301,42.012797,-71.336578,508-699-1701,12399.35999999999,96
c1e0ade1-f30b-3f7a-ad50-e49ad1ecd91f,NORTH SHORE COMMUNITY HEALTH INC,89 FOSTER ST,PEABODY,MA,01960-8925,42.534279,-70.969782,978-744-8388,6457.999999999995,50
aeaac2a1-6d6a-3cb2-901e-35fb39e5fdea,NORTHEAST GASTROENTEROLOGY ASSOCIATES PC,70 E ST,METHUEN,MA,01844-4597,42.742751,-71.178588,,6457.999999999995,50
cb33ab8b-0747-335e-a017-90d122199bfb,PCP176667,214 MAIN ST,HANSON,MA,02341-1956,42.050239000000005,-70.867359,781-826-0011,4908.079999999997,38
29769c4a-4330-3209-b546-1e1f12c7adc5,EYE CARE SPECIALISTS PC,31 PINE ST,NORFOLK,MA,02056-1642,42.116244,-71.329274,508-623-3880,11495.23999999999,89
35763b90-63ab-3c6a-895a-8c83bfa6bd3c,PCP178557,146 MAIN ST,NORFOLK,MA,02056-1322,42.116244,-71.329274,,645.8,5
f02902d7-aafe-3630-9022-988251e1e390,PCP178844,211 MORRISON AVE,SOMERVILLE,MA,02144-2017,42.390445,-71.101033,617-628-7155,3358.159999999999,26
7b1708aa-2c58-3779-a833-ddda57a35809,PCP178880,1 COMPASS WAY,EAST BRIDGEWATER,MA,02333-1465,42.037278,-70.94045899999999,,5812.199999999996,45
27d60331-bc72-3b35-b479-83a0fe612847,RADIATION THERAPY OF SOUTHEASTERN MASS  LLC,89 FORBES BLVD,MANSFIELD,MA,02048-1125,42.017302,-71.21641,857-307-3700,6199.679999999996,48
e4ec7c16-67f2-3612-92ba-0874e5c34dd7,PCP181228,58 DODGE ST,BEVERLY,MA,01915-1706,42.556659,-70.84496,,15370.039999999986,119
80ed6199-c2ad-3cf8-b224-a84d3bf5d459,PIONEER VALLEY UROLOGY  PC,100 WASON AVE,SPRINGFIELD,MA,01107-1119,42.115454,-72.539978,413-241-2100,2712.3599999999997,21
b5e314b4-2de9-37b0-a773-82975399cf66,PCP182913,100 S ST,SOUTHBRIDGE,MA,01550-4051,42.059669,-72.03404,508-764-2620,3745.6399999999985,29
277756cd-b4cf-3f9a-ae11-fc07d77c1113,ALL CARE HOMECARE  LLC,294 PLEASANT ST,STOUGHTON,MA,02072-2571,42.119006,-71.10365,781-436-3352,5941.359999999996,46
e076e490-31fb-32e0-acaf-48526bbe8c5d,BAY STATE EYE CARE  PC,1 N MAIN ST,MANSFIELD,MA,02048-2227,42.017302,-71.21641,508-339-7600,5941.359999999996,46
4b6058b3-f244-3567-a62f-73aaafe55acb,MASSACHUSETTS EYE ASSOCIATES PC,500 CLARK RD,TEWKSBURY,MA,01876-1639,42.612088,-71.227845,978-256-5600,3745.6399999999985,29
